[
   {
      "marca": "REPSOL",
      "actualizacion": 1545115802663,
      "direccion": "Carretera Picacho Ajusco No. 914",
      "lat": 19.281459,
      "lng": -99.214903,
      "nombre": "SOLUCIONES P&L, S.A.P.I. DE C.V.",
      "cre_id": "PL/4649/EXP/ES/2015"
   },
   {
      "marca": "REPSOL",
      "actualizacion": 1545115802663,
      "direccion": "Boulevard Adolfo López Mateos No. 2173",
      "lat": 19.356815,
      "lng": -99.198685,
      "nombre": "SOLUCIONES P&L, S.A.P.I. DE C.V.",
      "cre_id": "PL/20121/EXP/ES/2017"
   },
   {
      "marca": "PEMEX",
      "actualizacion": 1545115802671,
      "direccion": "Avenida Chimalhuacan No. 234",
      "lat": 19.415565,
      "lng": -99.029653,
      "nombre": "SOLUCIONES P&L, S.A.P.I. DE C.V.",
      "cre_id": "PL/4659/EXP/ES/2015"
   },
   {
      "marca": "REPSOL",
      "actualizacion": 1545115802674,
      "direccion": "Avenida Plutarco Elias Calles No. 430",
      "lat": 19.405338,
      "lng": -99.014582,
      "nombre": "SERVICIOS SIMPA SA DE CV",
      "cre_id": "PL/9714/EXP/ES/2015"
   },
   {
      "marca": "PEMEX",
      "actualizacion": 1545115802741,
      "direccion": "Avenida Jaritas S/N",
      "lat": 14.672425,
      "lng": -92.159787,
      "nombre": "ABASTECEDORA DE COMBUSTIBLES DEL SURESTE SA DE CV",
      "cre_id": "PL/768/EXP/ES/2015"
   },
   {
      "marca": "PEMEX",
      "actualizacion": 1545115802765,
      "direccion": "Prolongación de La 11a. Avenida Sur S/N",
      "lat": 14.867645,
      "lng": -92.265787,
      "nombre": "LUCIANO ANDRES RUIZ ROBLEDO",
      "cre_id": "PL/12689/EXP/ES/2015"
   },
   {
      "marca": "PEMEX",
      "actualizacion": 1545115802772,
      "direccion": "7° Avenida Sur Esquina 38° Calle Oriente",
      "lat": 14.8908273933884,
      "lng": -92.2639690846557,
      "nombre": "MULTISERVICIOS DE COMBUSTIBLE DEL SURESTE SA CV",
      "cre_id": "PL/18968/EXP/ES/2016"
   },
   {
      "marca": "G500",
      "actualizacion": 1545115802782,
      "direccion": "12a Avenida Sur Prolongación S/N",
      "lat": 14.8925302,
      "lng": -92.2748662,
      "nombre": "SERVICIO AKISHINO SA DE CV",
      "cre_id": "PL/10999/EXP/ES/2015"
   },
   {
      "marca": "HIDROSINA",
      "actualizacion": 1545115802783,
      "direccion": "Boulevard Díaz Ordaz No. 182",
      "lat": 14.904024,
      "lng": -92.247495,
      "nombre": "HIDROSINA PLUS, S.A.P.I. DE C.V.",
      "cre_id": "PL/10008/EXP/ES/2015"
   },
   {
      "marca": "REPSOL",
      "actualizacion": 1545115802785,
      "direccion": "Carretera Huixtla Tapachula Km 281+656",
      "lat": 14.91567,
      "lng": -92.34282,
      "nombre": "ENERGETICOS Y SERVICIOS OCOZOCOAUTLA  SA DE CV",
      "cre_id": "PL/765/EXP/ES/2015"
   },
   {
      "marca": "PEMEX",
      "actualizacion": 1545115802786,
      "direccion": "Carretera Costera Km 244",
      "lat": 14.916881,
      "lng": -92.2704,
      "nombre": "GASOLINERAS Y SERVICIO MARFIL SA DE CV",
      "cre_id": "PL/2856/EXP/ES/2015"
   },
   {
      "marca": "PEMEX",
      "actualizacion": 1545115802802,
      "direccion": "Calle Sexta Oriente Esquina Veintisiete Y Avenida Sur",
      "lat": 14.986517,
      "lng": -92.159648,
      "nombre": "SERVICIO CACAHOATAN SA DE CV",
      "cre_id": "PL/8616/EXP/ES/2015"
   },
   {
      "marca": "PEMEX",
      "actualizacion": 1545115802809,
      "direccion": "Carretera Costera Km 235",
      "lat": 15.21246,
      "lng": -92.569734,
      "nombre": "SERVICIO VILLA COMATITLAN SA DE CV",
      "cre_id": "PL/2550/EXP/ES/2015"
   },
   {
      "marca": "PEMEX",
      "actualizacion": 1545115802833,
      "direccion": "Carretera Pochutla-Oaxaca Km 1",
      "lat": 15.75443,
      "lng": -96.46479,
      "nombre": "SERVICOSTA OAXAQUE&A SA DE CV",
      "cre_id": "PL/3814/EXP/ES/2015"
   },
   {
      "marca": "NEXUM",
      "actualizacion": 1545115802839,
      "direccion": "Carretera Tuxtla Gutiérrez Cd. Cuauhtémoc Km 232+580 Frontera Comalapa",
      "lat": 15.833013,
      "lng": -91.965817,
      "nombre": "GRUPO LONOR, S.A. DE C.V.  E11919",
      "cre_id": "PL/874/EXP/ES/2015"
   },
   {
      "marca": "G500",
      "actualizacion": 1545115802849,
      "direccion": "Calle Tercera Norte No. 401",
      "lat": 15.864323,
      "lng": -97.0720409,
      "nombre": "ESTACION DE SERVICIO SAN ANTONIO, S.A. DE C.V.",
      "cre_id": "PL/5666/EXP/ES/2015"
   },
   {
      "marca": "PEMEX",
      "actualizacion": 1545115802851,
      "direccion": "Carretera Costera de Pacífico Km 2",
      "lat": 15.87115,
      "lng": -97.08946,
      "nombre": "SERVICIO COSTA ESMERALDA SA DE CV",
      "cre_id": "PL/3071/EXP/ES/2015"
   },
   {
      "marca": "G500",
      "actualizacion": 1545115802851,
      "direccion": "Pescadores Esquina Carretera Oaxaca No. 02 Poniente",
      "lat": 15.8817301,
      "lng": -97.0791041,
      "nombre": "SERVICIO CIMOGUA, S.A. DE C.V.",
      "cre_id": "PL/4805/EXP/ES/2015"
   },
   {
      "marca": "PEMEX",
      "actualizacion": 1545115802857,
      "direccion": "Carretera La Trinitaria - Ciudad Cuauhtemoc Km 210+700",
      "lat": 15.995655,
      "lng": -92.010498,
      "nombre": "ROSA MARINA ESPINOSA RODAS",
      "cre_id": "PL/12065/EXP/ES/2015"
   },
   {
      "marca": "G500",
      "actualizacion": 1545115802860,
      "direccion": "Km 85.5 Carretera Costera del Pacifico No. 80",
      "lat": 16.0105847,
      "lng": -97.4516038,
      "nombre": "SERVICIO CIMOVI, S.A. DE C.V.",
      "cre_id": "PL/4960/EXP/ES/2015"
   },
   {
      "marca": "PEMEX",
      "actualizacion": 1545115802864,
      "direccion": "Km 63 Carretera del Pacifico S/N",
      "lat": 16.08476,
      "lng": -97.65502,
      "nombre": "SERVICIO BERLES SA DE CV",
      "cre_id": "PL/4624/EXP/ES/2015"
   },
   {
      "marca": "PEMEX",
      "actualizacion": 1545115802864,
      "direccion": "Km 0+500 Carretera Independencia-Ángel Albino Corzo",
      "lat": 16.08684,
      "lng": -92.83539,
      "nombre": "gasolinera cuxtepeques s.a. de c.v.",
      "cre_id": "PL/5972/EXP/ES/2015"
   },
   {
      "marca": "G500",
      "actualizacion": 1545115802865,
      "direccion": "Carretera Costera del Pacifico No. 200 Km 61 No. 1",
      "lat": 16.0927026,
      "lng": -97.6864406,
      "nombre": "ESTACION NUEVA SAN ANTONIO, S.A. DE C.V.",
      "cre_id": "PL/5371/EXP/ES/2015"
   },
   {
      "marca": "PEMEX",
      "actualizacion": 1545115802866,
      "direccion": "Km 13 Carretera Revolución Mexicana-La Concordia S/N",
      "lat": 16.11626,
      "lng": -92.99559,
      "nombre": "GRUPO CHANONA ESPINOSA SA DE CV",
      "cre_id": "PL/4440/EXP/ES/2015"
   },
   {
      "marca": "PEMEX",
      "actualizacion": 1545115802869,
      "direccion": "Carretera La Trinitaria- Lagos de Montebello Km 24.900",
      "lat": 16.1244900917587,
      "lng": -91.8391313286972,
      "nombre": "SERVICIO LAZARO CARDENAS S.A. DE C.V.",
      "cre_id": "PL/4442/EXP/ES/2015"
   },
   {
      "marca": "G500",
      "actualizacion": 1545115802876,
      "direccion": "Carretera Villa Corzo-Revolución Mexicana Kilómetro 0 S/N",
      "lat": 16.1831769,
      "lng": -93.2694607,
      "nombre": "GASOLINERIA VILLACORZO, S.A. DE C.V.",
      "cre_id": "PL/966/EXP/ES/2015"
   },
   {
      "marca": "PEMEX",
      "actualizacion": 1545115802884,
      "direccion": "Boulevard Sur Frente a Lienzo Charro S/N",
      "lat": 16.2234335960595,
      "lng": -93.2747427116394,
      "nombre": "SERVICIO CHANONA BORGES SA DE CV",
      "cre_id": "PL/5566/EXP/ES/2015"
   },
   {
      "marca": "PEMEX",
      "actualizacion": 1545115802885,
      "direccion": "Carretera Tapanatepc-Arriaga Km 41",
      "lat": 16.22486,
      "lng": -93.92208,
      "nombre": "DESARROLLO GASOLINERO S.A. DE C.V.",
      "cre_id": "PL/3309/EXP/ES/2015"
   },
   {
      "marca": "PEMEX",
      "actualizacion": 1545115802896,
      "direccion": "Boulevard Belisario Dominguez Sur No. 77",
      "lat": 16.2432125325049,
      "lng": -92.1379725079346,
      "nombre": "DISTRIBUIDORA DE GASOLINAS S.A. DE C.V.",
      "cre_id": "PL/2710/EXP/ES/2015"
   },
   {
      "marca": "G500",
      "actualizacion": 1545115802901,
      "direccion": "Km 5 Carretera Villaflores-Tuxtla S/N",
      "lat": 16.2729329,
      "lng": -93.2800982,
      "nombre": "DELFINA MORALES RODRIGUEZ",
      "cre_id": "PL/4533/EXP/ES/2015"
   },
   {
      "marca": "G500",
      "actualizacion": 1545115802904,
      "direccion": "Km 30.200 Carretra Pinotepa Nacional-Jamiltepec No. 710",
      "lat": 16.2821525,
      "lng": -97.8288789,
      "nombre": "SERVICIO CIMOVI, S.A. DE C.V.",
      "cre_id": "PL/4958/EXP/ES/2015"
   },
   {
      "marca": "G500",
      "actualizacion": 1545115802923,
      "direccion": "Carretera Federal Pinotepa-Puerto Escondido Km 16 No. 003",
      "lat": 16.3332889,
      "lng": -97.9305332,
      "nombre": "ESTACION DE SERVICIO PEÑALONSO S.A. DE C.V.",
      "cre_id": "PL/12586/EXP/ES/2015"
   },
   {
      "marca": "G500",
      "actualizacion": 1545115802924,
      "direccion": "Km 1 Carretera Pinotepa Nacional-Pto.Escondido No. 312",
      "lat": 16.3351039,
      "lng": -98.0390791,
      "nombre": "SERVICIO CIMOGUA, S.A. DE C.V.",
      "cre_id": "PL/4231/EXP/ES/2015"
   },
   {
      "marca": "G500",
      "actualizacion": 1545115802927,
      "direccion": "Carretera Ocozocoautla - Villa Flores Km 52",
      "lat": 16.3471135,
      "lng": -93.4052606,
      "nombre": "SERVICIO EXPRESS DE COMBUSTIBLES, S.A. DE C.V.",
      "cre_id": "PL/896/EXP/ES/2015"
   },
   {
      "marca": "PEMEX",
      "actualizacion": 1545115802927,
      "direccion": "Km 1 Carretera Pinotepa Nal-Acapulco No. 410",
      "lat": 16.34932,
      "lng": -98.0621,
      "nombre": "SERVICIO CIMOGUA, S.A. DE C.V.",
      "cre_id": "PL/4313/EXP/ES/2015"
   },
   {
      "marca": "G500",
      "actualizacion": 1545115802928,
      "direccion": "Carretera Libramiento No. 201.",
      "lat": 16.3491046,
      "lng": -98.0493876,
      "nombre": "ESTACION DE SERVICIO SAN ANTONIO, S.A. DE C.V.",
      "cre_id": "PL/4239/EXP/ES/2015"
   },
   {
      "marca": "PEMEX",
      "actualizacion": 1545115802929,
      "direccion": "Carretera Cost.Del Pacifico Pinotepa-Acapulco Km 2 No. 530",
      "lat": 16.35388,
      "lng": -98.07024,
      "nombre": "ESTACION DE SERVICIO DORAMAR S.A. DE C.V.",
      "cre_id": "PL/12585/EXP/ES/2015"
   },
   {
      "marca": "G500",
      "actualizacion": 1545115802931,
      "direccion": "Carretera Pinotepa-Acapulco Km 2 No. 1630",
      "lat": 16.3543353,
      "lng": -98.0700333,
      "nombre": "SERVICIO PREMIER SA DE CV",
      "cre_id": "PL/3817/EXP/ES/2015"
   },
   {
      "marca": "PEMEX",
      "actualizacion": 1545115802933,
      "direccion": "Prolongación Avenida Central Norte S/N",
      "lat": 16.37629,
      "lng": -92.37486,
      "nombre": "GRUPO GASOLINERO PINOLA S.A. DE C.V.",
      "cre_id": "PL/11234/EXP/ES/2015"
   },
   {
      "marca": "G500",
      "actualizacion": 1545115802945,
      "direccion": "Avenida Gral. Porfirio Díaz No. 74",
      "lat": 16.4698284,
      "lng": -98.4065267,
      "nombre": "ESTACION DE SERVICIO SAN ANTONIO, S.A. DE C.V.",
      "cre_id": "PL/4571/EXP/ES/2015"
   },
   {
      "marca": "ORSAN",
      "actualizacion": 1545115802952,
      "direccion": "Carretera Federal 307 Fronteriza Sur Km 0.500",
      "lat": 16.500214,
      "lng": -90.654122,
      "nombre": "ESTACIONES DE SERVICIO AUTO S.A. DE C.V.",
      "cre_id": "PL/2211/EXP/ES/2015"
   },
   {
      "marca": "PEMEX",
      "actualizacion": 1545115802958,
      "direccion": "Avenida Joaquin Amaro No. 34",
      "lat": 16.54808,
      "lng": -95.08754,
      "nombre": "GASOLINERAS R Y R DE IXTEPEC SA DE CV",
      "cre_id": "PL/5779/EXP/ES/2015"
   },
   {
      "marca": "G500",
      "actualizacion": 1545115802965,
      "direccion": "Carretera Nacional Acapulco-Pinotepa Nacional Km 165 No. 80",
      "lat": 16.5818937,
      "lng": -98.8135963,
      "nombre": "ESTACION DE SERVICIO SAN ANTONIO, S.A. DE C.V.",
      "cre_id": "PL/4574/EXP/ES/2015"
   },
   {
      "marca": "PEMEX",
      "actualizacion": 1545115802965,
      "direccion": "Prolongación Boulevard Acapulco Pinotepa Nacional No. 2",
      "lat": 16.5821111111111,
      "lng": -98.8035972222222,
      "nombre": "SERVICIO MARQUELIA SA DE CV",
      "cre_id": "PL/8420/EXP/ES/2015"
   },
   {
      "marca": "PEMEX",
      "actualizacion": 1545115802983,
      "direccion": "Boulevard Dr. Rodulfo Figueroa No. 1796",
      "lat": 16.6772428597,
      "lng": -93.7355964616,
      "nombre": "COMERCIALIZADORA DE COMBUSTIBLE DEL SURESTE SA CV",
      "cre_id": "PL/6455/EXP/ES/2015"
   },
   {
      "marca": "PEMEX",
      "actualizacion": 1545115802984,
      "direccion": "Boulevard Ometepec-Las Vigas No. 2",
      "lat": 16.685907,
      "lng": -98.441799,
      "nombre": "SERVICIO ADAREN SA DE CV",
      "cre_id": "PL/8429/EXP/ES/2015"
   },
   {
      "marca": "PEMEX",
      "actualizacion": 1545115802985,
      "direccion": "Boulevard Ometepec-Las Vigas No. 1",
      "lat": 16.686382,
      "lng": -98.440723,
      "nombre": "SERVICIO ADAREN SA DE CV",
      "cre_id": "PL/8431/EXP/ES/2015"
   },
   {
      "marca": "PEMEX",
      "actualizacion": 1545115802992,
      "direccion": "Carretera Tuxtla La Angostura Km 6",
      "lat": 16.691181,
      "lng": -93.021096,
      "nombre": "JESUS ANTONIO ORANTES NORIEGA",
      "cre_id": "PL/4206/EXP/ES/2015"
   },
   {
      "marca": "PEMEX",
      "actualizacion": 1545115803002,
      "direccion": "Periférico Sur Poniente No. 36",
      "lat": 16.7213,
      "lng": -92.652862,
      "nombre": "MARIO ASUNCION AGUILAR MORENO",
      "cre_id": "PL/19749/EXP/ES/2016"
   },
   {
      "marca": "G500",
      "actualizacion": 1545115803012,
      "direccion": "Boulevard 20 de Noviembre No. 111",
      "lat": 16.7223107,
      "lng": -93.0187708,
      "nombre": "JOSE ALBERTO SAAVEDRA VAZQUEZ",
      "cre_id": "PL/4699/EXP/ES/2015"
   },
   {
      "marca": "G500",
      "actualizacion": 1545115803018,
      "direccion": "Libramiento Sur Oriente No. 1696",
      "lat": 16.7312977,
      "lng": -93.1069692,
      "nombre": "JUAN OSCAR LIEVANO NARVAEZ",
      "cre_id": "PL/19314/EXP/ES/2016"
   },
   {
      "marca": "PEMEX",
      "actualizacion": 1545115803023,
      "direccion": "Carretera Internacional Tuxtla Chiapa de Corzo Km 1092 No. 2790",
      "lat": 16.734007,
      "lng": -93.054995,
      "nombre": "GASOLINERA CANCINO S.A. DE C.V.",
      "cre_id": "PL/1569/EXP/ES/2015"
   },
   {
      "marca": "G500",
      "actualizacion": 1545115803025,
      "direccion": "Libramiento Sur Oriente No. 3430",
      "lat": 16.7340399,
      "lng": -93.0930732,
      "nombre": "OLEUM GAS S.A. DE C.V.",
      "cre_id": "PL/754/EXP/ES/2015"
   },
   {
      "marca": "G500",
      "actualizacion": 1545115803036,
      "direccion": "18 Sur Poniente No. 1920",
      "lat": 16.744037724589,
      "lng": -93.12847992223,
      "nombre": "GASOLINA Y LUBRICANTES JOSE JUAN SA DECV",
      "cre_id": "PL/3181/EXP/ES/2015"
   },
   {
      "marca": "PEMEX",
      "actualizacion": 1545115803042,
      "direccion": "Boulevard Barra Vieja Lt. 34 Y 5 Mz. 16 Zona 1",
      "lat": 16.744882,
      "lng": -99.755417,
      "nombre": "SERVICIO PLAYA HERMOSA S.A. DE C.V.",
      "cre_id": "PL/13643/EXP/ES/2016"
   },
   {
      "marca": "G500",
      "actualizacion": 1545115803065,
      "direccion": "Libramiento Sur Poniente No. 1570",
      "lat": 16.7502238,
      "lng": -93.1393206,
      "nombre": "GASOLINERA LAS MARIAS CORRECTOS S A DE C V",
      "cre_id": "PL/2300/EXP/ES/2015"
   },
   {
      "marca": "G500",
      "actualizacion": 1545115803081,
      "direccion": "Carretera Nacioanl Acapulco-Pinotepa Nacional No. 80-A",
      "lat": 16.7531639,
      "lng": -99.2357096,
      "nombre": "ESTACION DE SERVICIO SAN ANTONIO, S.A. DE C.V.",
      "cre_id": "PL/4577/EXP/ES/2015"
   },
   {
      "marca": "G500",
      "actualizacion": 1545115803084,
      "direccion": "Boulevard Belisario Domínguez No. 2426 Fraccionamiento Residencial Campestre",
      "lat": 16.7548443,
      "lng": -93.1396866,
      "nombre": "OLEUM GAS S.A. DE C.V.",
      "cre_id": "PL/1567/EXP/ES/2015"
   },
   {
      "marca": "REPSOL",
      "actualizacion": 1545115803094,
      "direccion": "2da. Sur Poniente No. 949 Barrio San Antonio Ocozocoautla de Espinosa",
      "lat": 16.76469,
      "lng": -93.38528,
      "nombre": "IMPULSORA COMERCIAL OCOZOCOAUTLA SA DE CV",
      "cre_id": "PL/9932/EXP/ES/2015"
   },
   {
      "marca": "PEMEX",
      "actualizacion": 1545115803099,
      "direccion": "5a Avenida Norte-Poniente No. 706",
      "lat": 16.759247,
      "lng": -93.120795,
      "nombre": "GASOLINERA QUINTA NORTE S.A. DE C.V.",
      "cre_id": "PL/3265/EXP/ES/2015"
   },
   {
      "marca": "PEMEX",
      "actualizacion": 1545115803104,
      "direccion": "Quinta Avenida Norte Poniente Esquina Avenida Lum-Ha",
      "lat": 16.762628,
      "lng": -93.152544,
      "nombre": "UNIDAD CORPORATIVA DE ENERGETICOS, S.A. DE C.V.",
      "cre_id": "PL/4771/EXP/ES/2015"
   },
   {
      "marca": "REPSOL",
      "actualizacion": 1545115803120,
      "direccion": "Carretera Ocozocoautla Km 132+70",
      "lat": 16.76811,
      "lng": -93.2966,
      "nombre": "PROMOTORA DE SERVICIOS OCOZOCOAUTLA SA DE CV",
      "cre_id": "PL/723/EXP/ES/2015"
   },
   {
      "marca": "G500",
      "actualizacion": 1545115803121,
      "direccion": "Carretera Tuxtla Gutierrez Aeropuerto Llano San Juan Km 10.3",
      "lat": 16.7688045,
      "lng": -93.2823422,
      "nombre": "PETRO BERRIOZABAL S.A. DE C.V",
      "cre_id": "PL/3949/EXP/ES/2015"
   },
   {
      "marca": "G500",
      "actualizacion": 1545115803129,
      "direccion": "BOULEVARD FIDEL VELAZQUEZ ESQUINA CALLE NATALIA VENEGAS No. 1115",
      "lat": 16.7754842,
      "lng": -93.0905851,
      "nombre": "COMBUSTIBLES MB DE LA COSTA, S.A. DE C.V.",
      "cre_id": "PL/20949/EXP/ES/2018"
   },
   {
      "marca": "PEMEX",
      "actualizacion": 1545115803136,
      "direccion": "Carretera Tuxtla Aeropuerto Llano San Juan Km 14+000",
      "lat": 16.782227,
      "lng": -93.224573,
      "nombre": "Mario Gamboa E Hijos SA",
      "cre_id": "PL/12033/EXP/ES/2015"
   },
   {
      "marca": "PEMEX",
      "actualizacion": 1545115803148,
      "direccion": "Libramiento Ocotlán de Morelos Km 37.310",
      "lat": 16.79175,
      "lng": -96.646656,
      "nombre": "ERIKA DOROTEO ORTIZ",
      "cre_id": "PL/4575/EXP/ES/2015"
   },
   {
      "marca": "PEMEX",
      "actualizacion": 1545115803153,
      "direccion": "Paraje Llano Rana S/N",
      "lat": 16.7998983008,
      "lng": -97.0776112237,
      "nombre": "Estacion de Servicio Bee Akabiche SA de CV",
      "cre_id": "PL/2983/EXP/ES/2015"
   },
   {
      "marca": "PEMEX",
      "actualizacion": 1545115803160,
      "direccion": "Carretera Cayaco Puerto Marquez S/N",
      "lat": 16.801718708337,
      "lng": -99.8224116613769,
      "nombre": "Grupo Fortemexico, S.A. de C.V.",
      "cre_id": "PL/5985/EXP/ES/2015"
   },
   {
      "marca": "PEMEX",
      "actualizacion": 1545115803165,
      "direccion": "Boulevard Cayaco-Puerto Marquez Km 5+030",
      "lat": 16.818701,
      "lng": -99.81335,
      "nombre": "SERVICIO LLANO LARGO, S.A. DE C.V.",
      "cre_id": "PL/4289/EXP/ES/2015"
   },
   {
      "marca": "G500",
      "actualizacion": 1545115803167,
      "direccion": "Carretera Cayaco - Puerto Marquez S/N",
      "lat": 16.8265333,
      "lng": -99.8133322,
      "nombre": "SERVICIO BRISMAR S.A. DE C.V.",
      "cre_id": "PL/6888/EXP/ES/2015"
   },
   {
      "marca": "PEMEX",
      "actualizacion": 1545115803168,
      "direccion": "Carretera Cayaco-Puerto Marquez Km 3 No. 109",
      "lat": 16.83136,
      "lng": -99.81325,
      "nombre": "SERVICIO CIMOVI, S.A. DE C.V.",
      "cre_id": "PL/4765/EXP/ES/2015"
   },
   {
      "marca": "G500",
      "actualizacion": 1545115803169,
      "direccion": "Avenida los manguitos #50",
      "lat": 16.8305245,
      "lng": -93.1895221,
      "nombre": "Consorcio Gasolinero Las Nubes S.A. de C.V.",
      "cre_id": "PL/21439/EXP/ES/2018"
   },
   {
      "marca": "HIDROSINA",
      "actualizacion": 1545115803176,
      "direccion": "Avenida Costera Miguel Aleman No. 379",
      "lat": 16.843548,
      "lng": -99.911668,
      "nombre": "CONSORCIO GASOLINERO PLUS, S.A. DE C.V.",
      "cre_id": "PL/6409/EXP/ES/2015"
   },
   {
      "marca": "PEMEX",
      "actualizacion": 1545115803181,
      "direccion": "Avenida Costera Miguel Aleman Y Malecon de Turismo S/N",
      "lat": 16.848376,
      "lng": -99.906236,
      "nombre": "MULLER Y ASOCIADOS, S.A. DE C.V.",
      "cre_id": "PL/4287/EXP/ES/2015"
   },
   {
      "marca": "PEMEX",
      "actualizacion": 1545115803181,
      "direccion": "Avenida Costera Miguel Aleman S/N",
      "lat": 16.854013,
      "lng": -99.900195,
      "nombre": "JAR, INFRAESTRUCTURA MARINA, S.A. DE C.V.",
      "cre_id": "PL/18938/EXP/ES/2016"
   },
   {
      "marca": "PEMEX",
      "actualizacion": 1545115803186,
      "direccion": "Carretera Acapulco Pinotepa No. 217",
      "lat": 16.852047,
      "lng": -99.79984,
      "nombre": "GONZALO LATABAN HERNANDEZ",
      "cre_id": "PL/7528/EXP/ES/2015"
   },
   {
      "marca": "PEMEX",
      "actualizacion": 1545115803200,
      "direccion": "Calzada Pie de La Cuesta Y Avenida Ejido S/N",
      "lat": 16.86193,
      "lng": -99.91426,
      "nombre": "ESTACION DE SERVICIO MOZIMBA, S.A. DE C.V.",
      "cre_id": "PL/5537/EXP/ES/2015"
   },
   {
      "marca": "PEMEX",
      "actualizacion": 1545115803206,
      "direccion": "Calzada Pie de La Cuesta No. 510 Lt. 7",
      "lat": 16.863222,
      "lng": -99.9267,
      "nombre": "DISTRIBUIDORA DE ENERGETICOS DEL PACIFICO SA DE CV",
      "cre_id": "PL/10951/EXP/ES/2015"
   },
   {
      "marca": "PEMEX",
      "actualizacion": 1545115803209,
      "direccion": "Avenida Cuauhtemoc Y Cerro Azul No. 109",
      "lat": 16.8646355180237,
      "lng": -99.8789272037048,
      "nombre": "SERVICIO MAGALLANES, S.A. DE C.V.",
      "cre_id": "PL/4337/EXP/ES/2015"
   },
   {
      "marca": "G500",
      "actualizacion": 1545115803215,
      "direccion": "Avenida Lázaro Cárdenas No. 1",
      "lat": 16.8749974,
      "lng": -99.8177091,
      "nombre": "SERVI FER, S.A. DE C.V.",
      "cre_id": "PL/4317/EXP/ES/2015"
   },
   {
      "marca": "PEMEX",
      "actualizacion": 1545115803229,
      "direccion": "Avenida Lázaro Cárdenas No. 864",
      "lat": 16.885194,
      "lng": -99.836726,
      "nombre": "COMBUSTIBLES Y LUBRICANTES DE LA COSTA CHICA SA CV",
      "cre_id": "PL/1190/EXP/ES/2015"
   },
   {
      "marca": "PEMEX",
      "actualizacion": 1545115803232,
      "direccion": "Boulevard Vicente Guerrero Saldaña No. 420",
      "lat": 16.893775,
      "lng": -99.834219,
      "nombre": "SERVICIO LIBERTADORES, S.A. DE C.V.",
      "cre_id": "PL/4326/EXP/ES/2015"
   },
   {
      "marca": "PEMEX",
      "actualizacion": 1545115803233,
      "direccion": "Carretera Nacional Acapulco-Zihuatanejo Lt. 6 7 8 27 Mz. 58",
      "lat": 16.90377,
      "lng": -99.961665,
      "nombre": "GASOLINERA TAJA PLUS S.A. DE C.V.",
      "cre_id": "PL/13644/EXP/ES/2016"
   },
   {
      "marca": "PEMEX",
      "actualizacion": 1545115803252,
      "direccion": "Calzada 1° de Marzo S/N",
      "lat": 16.95149,
      "lng": -99.10234,
      "nombre": "ESTACION DE SERVICIO AYUTLA SA DE CV",
      "cre_id": "PL/8441/EXP/ES/2015"
   },
   {
      "marca": "PEMEX",
      "actualizacion": 1545115803263,
      "direccion": "Carretera Nacional México-Acapulco Km 380",
      "lat": 16.975775,
      "lng": -99.810846,
      "nombre": "MULTISERVICIO GASOLINERO EL LIBRAMIENTO SA DE CV",
      "cre_id": "PL/9588/EXP/ES/2015"
   },
   {
      "marca": "PEMEX",
      "actualizacion": 1545115803273,
      "direccion": "Carrt Perez Gasga Km 147+400",
      "lat": 17.00548,
      "lng": -98.90656,
      "nombre": "SERVICIO FERNANDEZ HNOS SA DE CV",
      "cre_id": "PL/8263/EXP/ES/2015"
   },
   {
      "marca": "G500",
      "actualizacion": 1545115803275,
      "direccion": "Avenida Simbolos Patrios No. 419",
      "lat": 17.0203025,
      "lng": -96.7110073,
      "nombre": "ARRENDADORA E INMOBILIARIA OMMSA SA DE CV",
      "cre_id": "PL/2850/EXP/ES/2015"
   },
   {
      "marca": "PEMEX",
      "actualizacion": 1545115803309,
      "direccion": "Carretera Perez Gasga N0. 2025",
      "lat": 17.035981,
      "lng": -97.918704,
      "nombre": "OPERADORA DE COMBUSTIBLES SAN AGUSTIN S.A. DE C.V.",
      "cre_id": "PL/6960/EXP/ES/2015"
   },
   {
      "marca": "G500",
      "actualizacion": 1545115803309,
      "direccion": "Avenida Universidad No. 145 Ex Hda. Candiani",
      "lat": 17.0364613,
      "lng": -96.7119058,
      "nombre": "Estacion de Servicio Camaisa, S.A. de C.V.",
      "cre_id": "PL/9697/EXP/ES/2015"
   },
   {
      "marca": "PEMEX",
      "actualizacion": 1545115803338,
      "direccion": "Avenida Monte Alban No. 136",
      "lat": 17.0614527166737,
      "lng": -96.7405930380287,
      "nombre": "MORALES SANCHEZ GASOLINERA SA DE CV",
      "cre_id": "PL/2718/EXP/ES/2015"
   },
   {
      "marca": "PEMEX",
      "actualizacion": 1545115803349,
      "direccion": "Carretera Oaxaca-Guelatao No. 2000",
      "lat": 17.072923,
      "lng": -96.670892,
      "nombre": "GASOLINERAS SUREÑAS S. DE R.L. DE C.V.",
      "cre_id": "PL/2035/EXP/ES/2015"
   },
   {
      "marca": "G500",
      "actualizacion": 1545115803357,
      "direccion": "Carretera Panamericana Km 542.5",
      "lat": 17.086305,
      "lng": -96.7453878,
      "nombre": "COMBUSTIBLES FAJA DE ORO SA DE CV",
      "cre_id": "PL/2196/EXP/ES/2015"
   },
   {
      "marca": "PEMEX",
      "actualizacion": 1545115803389,
      "direccion": "Km 78+800 Carretera Nacional Acapulco-Zihuatanejo",
      "lat": 17.15671,
      "lng": -100.44024,
      "nombre": "Servicio Quinto Patio, S.A de C.V.",
      "cre_id": "PL/11296/EXP/ES/2015"
   },
   {
      "marca": "PEMEX",
      "actualizacion": 1545115803392,
      "direccion": "Carretera México-Acapulco Km 332-4",
      "lat": 17.166948,
      "lng": -99.53079,
      "nombre": "ALCARAZ HERMANOS SA DE CV",
      "cre_id": "PL/10851/EXP/ES/2015"
   },
   {
      "marca": "PEMEX",
      "actualizacion": 1545115803395,
      "direccion": "Carretera Tecpatan Raudales Malpaso Km 4.23 S/N",
      "lat": 17.187631,
      "lng": -93.56612,
      "nombre": "GASOLINA Y LUBRICANTES MALPASO SA DE CV",
      "cre_id": "PL/725/EXP/ES/2015"
   },
   {
      "marca": "BP",
      "actualizacion": 1545115803398,
      "direccion": "Carretera Cristobal Colon Km 14",
      "lat": 17.2049452,
      "lng": -96.7962308,
      "nombre": "GASOLINERA ETLA S.A DE C.V",
      "cre_id": "PL/7983/EXP/ES/2015"
   },
   {
      "marca": "PEMEX",
      "actualizacion": 1545115803414,
      "direccion": "KM. 56+600 DE LA CARRETERA BOCA DEL MONTE, OAXACA A LA CHINANTLA UXPANAPA VERACRUZ; PARCELA NO. 48 Z - 1P 1/1",
      "lat": 17.24323,
      "lng": -94.62377,
      "nombre": "GASOLINERA VALLES DE UXPANAPA SA DE CV",
      "cre_id": "PL/20768/EXP/ES/2017"
   },
   {
      "marca": "PEMEX",
      "actualizacion": 1545115803417,
      "direccion": "Calle Hernandez López No. 1",
      "lat": 17.2623692085522,
      "lng": -97.6638989107284,
      "nombre": "JORGE LUIS HERNANDEZ HERNANDEZ",
      "cre_id": "PL/10692/EXP/ES/2015"
   },
   {
      "marca": "PEMEX",
      "actualizacion": 1545115803423,
      "direccion": "Carretera Federal Chilpancingo-Acapulco Km 46 + 340",
      "lat": 17.275146,
      "lng": -99.489943,
      "nombre": "SERVICIO CAJELES S.A. DE C.V.",
      "cre_id": "PL/3624/EXP/ES/2015"
   },
   {
      "marca": "PEMEX",
      "actualizacion": 1545115803437,
      "direccion": "Crucero Rio Chancala",
      "lat": 17.3213478194794,
      "lng": -91.6941889497376,
      "nombre": "LA PUERTA DE LA SELVA LACANDONA, S.A. DE C.V.",
      "cre_id": "PL/6626/EXP/ES/2015"
   },
   {
      "marca": "PEMEX",
      "actualizacion": 1545115803437,
      "direccion": "Boulevard Juxtlahuaca Putla S-N",
      "lat": 17.330372,
      "lng": -98.013834,
      "nombre": "GRUPO EMPRESARIAL 3 MIXTECAS, S.A. DE C.V.",
      "cre_id": "PL/3294/EXP/ES/2015"
   },
   {
      "marca": "PEMEX",
      "actualizacion": 1545115803439,
      "direccion": "Carretera Nacional Acapulco-Zihuatanejo Km 162",
      "lat": 17.329739,
      "lng": -101.044186,
      "nombre": "SALYMA COMBUSTIBLES SA DE CV",
      "cre_id": "PL/9386/EXP/ES/2015"
   },
   {
      "marca": "G500",
      "actualizacion": 1545115803464,
      "direccion": "Calle 20 No. 675",
      "lat": 17.462223,
      "lng": -91.4293266,
      "nombre": "JUSTO JESUS DIAZ DEL CASTILLO CORTES",
      "cre_id": "PL/5395/EXP/ES/2015"
   },
   {
      "marca": "PEMEX",
      "actualizacion": 1545115803469,
      "direccion": "Carretera Terraceria Al Platanar S/N",
      "lat": 17.471977,
      "lng": -98.533417,
      "nombre": "CARLOS RIVERA MEDEL",
      "cre_id": "PL/7895/EXP/ES/2015"
   },
   {
      "marca": "ORSAN",
      "actualizacion": 1545115803478,
      "direccion": "Palenque Ocosingo Km 0+0.55",
      "lat": 17.5021,
      "lng": -91.991567,
      "nombre": "ESTACIONES DE SERVICIO AUTO S.A. DE C.V.",
      "cre_id": "PL/1430/EXP/ES/2015"
   },
   {
      "marca": "PEMEX",
      "actualizacion": 1545115803486,
      "direccion": "Boulevard Vicente Guerrero No. 560",
      "lat": 17.516149,
      "lng": -99.481656,
      "nombre": "SERVICIO CENTRO COMERCIAL CHILPANCINGO S.A DE C.V.",
      "cre_id": "PL/8329/EXP/ES/2015"
   },
   {
      "marca": "PEMEX",
      "actualizacion": 1545115803498,
      "direccion": "Km 204 Acapulco-Zihuatanejo",
      "lat": 17.534591660375,
      "lng": -101.264521136246,
      "nombre": "IGNACIO GONZALEZ NAVARRETE",
      "cre_id": "PL/10932/EXP/ES/2015"
   },
   {
      "marca": "PEMEX",
      "actualizacion": 1545115803515,
      "direccion": "Francisco Trujillo Gurria",
      "lat": 17.553049,
      "lng": -92.947379,
      "nombre": "COMBUSTIBLES Y DERIVADOS JM, S.A. DE C.V.",
      "cre_id": "PL/4810/EXP/ES/2015"
   },
   {
      "marca": "ORSAN",
      "actualizacion": 1545115803519,
      "direccion": "Carretera Salto de Agua-Circuito del Golfo S/N Km 1",
      "lat": 17.557178,
      "lng": -92.350128,
      "nombre": "ESTACIONES DE SERVICIO AUTO S.A. DE C.V.",
      "cre_id": "PL/2010/EXP/ES/2015"
   },
   {
      "marca": "PEMEX",
      "actualizacion": 1545115803521,
      "direccion": "Avenida Benito Juárez No. 61",
      "lat": 17.55944,
      "lng": -99.50612,
      "nombre": "OPERADORA DE COMBUSTIBLES SANDOVAL SA DE CV",
      "cre_id": "PL/5896/EXP/ES/2015"
   },
   {
      "marca": "G500",
      "actualizacion": 1545115803529,
      "direccion": "Carretera Villahermosa-Teapa Km 53+500",
      "lat": 17.5712616,
      "lng": -92.9564229,
      "nombre": "Servicio El Abaca, S.A. de C.V.",
      "cre_id": "PL/20019/EXP/ES/2017"
   },
   {
      "marca": "PEMEX",
      "actualizacion": 1545115803538,
      "direccion": "Carretera Chilpancingo-Chilapa Km 17 S/N",
      "lat": 17.58364,
      "lng": -99.38817,
      "nombre": "SERVICIO ASTUDILLO S.A. DE C.V.",
      "cre_id": "PL/7632/EXP/ES/2015"
   },
   {
      "marca": "PEMEX",
      "actualizacion": 1545115803552,
      "direccion": "Carretera Federal Chilpancingo-Tlapa Km 53",
      "lat": 17.60545556,
      "lng": -99.17475,
      "nombre": "COMBUSTIBLES Y REFINADOS JARDINES SA DE CV",
      "cre_id": "PL/9964/EXP/ES/2015"
   },
   {
      "marca": "PEMEX",
      "actualizacion": 1545115803561,
      "direccion": "Paseo de Las Salinas Lt. 3 Mz. 1 Supermz. Ii",
      "lat": 17.6393166238347,
      "lng": -101.563699280764,
      "nombre": "IGNACIO GONZALEZ NAVARRETE",
      "cre_id": "PL/10939/EXP/ES/2015"
   },
   {
      "marca": "PEMEX",
      "actualizacion": 1545115803578,
      "direccion": "División del Norte No. 1",
      "lat": 17.66104,
      "lng": -99.67374,
      "nombre": "ESTACIÓN DE SERVICIO SAN MIGUEL S.A. DE C.V.",
      "cre_id": "PL/12715/EXP/ES/2015"
   },
   {
      "marca": "PEMEX",
      "actualizacion": 1545115803590,
      "direccion": "Carretera Villahermosa-Escarcega Km 114 Margen Derecho",
      "lat": 17.71317,
      "lng": -92.01047,
      "nombre": "OPERADORA DE ESTACIONES DE SERVICIO VIDA, SA DE CV",
      "cre_id": "PL/11355/EXP/ES/2015"
   },
   {
      "marca": "PEMEX",
      "actualizacion": 1545115803611,
      "direccion": "Boulevard Carlos A. Madrazo No. 220",
      "lat": 17.747156,
      "lng": -92.610231,
      "nombre": "CONSORCIO MARIN Y ASOCIADOS, S. A. DE C. V.",
      "cre_id": "PL/7208/EXP/ES/2015"
   },
   {
      "marca": "PEMEX",
      "actualizacion": 1545115803615,
      "direccion": "Carretera Cuacnopalan-Oaxaca Km 141+300 Lado Derecho (Sentido 1)",
      "lat": 17.75781,
      "lng": -97.44388,
      "nombre": "GASOLINERA SUCHIXTLAHUACA SA DE CV",
      "cre_id": "PL/19145/EXP/ES/2016"
   },
   {
      "marca": "PEMEX",
      "actualizacion": 1545115803655,
      "direccion": "Carretera Federal Tlapa-Tecomatlán Km 38",
      "lat": 17.80547,
      "lng": -98.55925,
      "nombre": "DANAE ALCESTES LAVINIA CORDOVA MORAN",
      "cre_id": "PL/10032/EXP/ES/2015"
   },
   {
      "marca": "PEMEX",
      "actualizacion": 1545115803662,
      "direccion": "Avenida 5 de Febrero No. 227",
      "lat": 17.81585,
      "lng": -97.79044,
      "nombre": "GRUPO EMPRESARIAL 3 MIXTECAS, S.A. DE C.V.",
      "cre_id": "PL/2629/EXP/ES/2015"
   },
   {
      "marca": "PEMEX",
      "actualizacion": 1545115803667,
      "direccion": "Carretera Fed.185 Huimanguillo V. Chontalpa Esquina Sin Nombre",
      "lat": 17.817544,
      "lng": -93.402929,
      "nombre": "GRUPO DAGDUGPRATS S.A. DE C.V.",
      "cre_id": "PL/6011/EXP/ES/2015"
   },
   {
      "marca": "LA GAS",
      "actualizacion": 1545115803684,
      "direccion": "KM 3.5 DE LA CARRETERA ESTATAL VILLAHERMOSA- CIUDAD PEMEX Y CIUDAD PEMEX ,  SEGUNDA SECCION",
      "lat": 17.84571,
      "lng": -92.50108,
      "nombre": "E.S.G.E.S. S.A DE C.V",
      "cre_id": "PL/20804/EXP/ES/2018"
   },
   {
      "marca": "BP",
      "actualizacion": 1545115803686,
      "direccion": "Carretera Vhsa-Teapa No. Km 19.016",
      "lat": 17.8495555,
      "lng": -92.9281672,
      "nombre": "Energia DG S de RL de CV",
      "cre_id": "PL/4682/EXP/ES/2015"
   },
   {
      "marca": "ORSAN",
      "actualizacion": 1545115803688,
      "direccion": "Km 45+750 Reforma Juárez",
      "lat": 17.857372,
      "lng": -93.155428,
      "nombre": "ESTACIONES DE SERVICIO AUTO S.A. DE C.V.",
      "cre_id": "PL/1409/EXP/ES/2015"
   },
   {
      "marca": "PEMEX",
      "actualizacion": 1545115803690,
      "direccion": "Km 1+280 Carretera Mariscala de Juárez-Fresnillo de Tr",
      "lat": 17.86598640533,
      "lng": -98.1302604662704,
      "nombre": "GUADALUPE TORRALBA VALLE",
      "cre_id": "PL/7955/EXP/ES/2015"
   },
   {
      "marca": "G500",
      "actualizacion": 1545115803693,
      "direccion": "Carretera Macuspana Cd. Pemex Esquina Miguel Hidalgo",
      "lat": 17.8739238,
      "lng": -92.4865472,
      "nombre": "SERVICIO CIUDAD PEMEX SA DE CV",
      "cre_id": "PL/3366/EXP/ES/2015"
   },
   {
      "marca": "G500",
      "actualizacion": 1545115803709,
      "direccion": "Carretera Estatal Villahermosa-Reforma Km 20+000",
      "lat": 17.8993614,
      "lng": -93.0573049,
      "nombre": "SERVICIO REGIO SEIS, S.A. DE C.V.",
      "cre_id": "PL/20195/EXP/ES/2017"
   },
   {
      "marca": "PEMEX",
      "actualizacion": 1545115803728,
      "direccion": "Carretera Acayucan - Sayula Km 6.5+752.30",
      "lat": 17.921267,
      "lng": -94.930986,
      "nombre": "SERVICIO FACIL DEL SURESTE SA DE CV",
      "cre_id": "PL/1435/EXP/ES/2015"
   },
   {
      "marca": "PEMEX",
      "actualizacion": 1545115803730,
      "direccion": "Carretera Cd. Aleman-Sayula de Aleman Km 114+020 Sn La Lima Lado Izquierdo",
      "lat": 17.92446,
      "lng": -95.16277,
      "nombre": "ESTACION DE SERVICIOS LA LIMA SA DE CV",
      "cre_id": "PL/5556/EXP/ES/2015"
   },
   {
      "marca": "ORSAN",
      "actualizacion": 1545115803749,
      "direccion": "Carretera Villahermosa-Escarcega No. 186 Km 17+267",
      "lat": 17.945692,
      "lng": -92.784033,
      "nombre": "ESTACIONES DE SERVICIO AUTO S.A. DE C.V.",
      "cre_id": "PL/2911/EXP/ES/2015"
   },
   {
      "marca": "PEMEX",
      "actualizacion": 1545115803769,
      "direccion": "Avenida José María Morelos No. 19",
      "lat": 17.963671,
      "lng": -102.203577,
      "nombre": "Super Servicio Pacifico AM S.A. de C.V.",
      "cre_id": "PL/6788/EXP/ES/2015"
   },
   {
      "marca": "BP",
      "actualizacion": 1545115803843,
      "direccion": "Carretera Vhsa-Macuspana Km 14.500 S/N",
      "lat": 17.9650267,
      "lng": -92.8026231,
      "nombre": "Energia DG S de RL de CV",
      "cre_id": "PL/4680/EXP/ES/2015"
   },
   {
      "marca": "HIDROSINA",
      "actualizacion": 1545115803847,
      "direccion": "Periférico Carlos Pellicer Cámara Nº 515",
      "lat": 17.97126,
      "lng": -92.92356,
      "nombre": "SERVICIO ULTRA SA DE CV",
      "cre_id": "PL/6142/EXP/ES/2015"
   },
   {
      "marca": "ORSAN",
      "actualizacion": 1545115803848,
      "direccion": "Autopista Cosoleacaque - La Tinaja Km 31+800",
      "lat": 17.967008,
      "lng": -94.652486,
      "nombre": "ESTACIONES DE SERVICIO AUTO S.A. DE C.V.",
      "cre_id": "PL/2838/EXP/ES/2015"
   },
   {
      "marca": "G500",
      "actualizacion": 1545115803848,
      "direccion": "Avenida Periférico Carlos Pellicer S/N.",
      "lat": 17.968231,
      "lng": -92.9418599,
      "nombre": "Gasolinera Servicio Real San Luis S.A. de C.V.",
      "cre_id": "PL/7892/EXP/ES/2015"
   },
   {
      "marca": "G500",
      "actualizacion": 1545115803853,
      "direccion": "El Amate Esquina Carretera Federal Villahermosa-Teapa S/N",
      "lat": 17.9685509,
      "lng": -92.9190103,
      "nombre": "SERVICIO LEAL Y MONTEROS, S.A. DE C.V.",
      "cre_id": "PL/3775/EXP/ES/2015"
   },
   {
      "marca": "G500",
      "actualizacion": 1545115803854,
      "direccion": "Carretera Villahermosa a Teapa Km 7",
      "lat": 17.9692742,
      "lng": -92.9188819,
      "nombre": "CARVI AUTOSERVICIOS SA DE CV",
      "cre_id": "PL/19420/EXP/ES/2016"
   },
   {
      "marca": "PEMEX",
      "actualizacion": 1545115803857,
      "direccion": "Avenida Prolongación Tulipanes No. 1544",
      "lat": 17.972188,
      "lng": -102.207362,
      "nombre": "SERVICIOS Y COMBUSTIBLES LAZARO CARDENAS SA DE CV",
      "cre_id": "PL/12688/EXP/ES/2015"
   },
   {
      "marca": "G500",
      "actualizacion": 1545115803864,
      "direccion": "Prolongación Paseo Usumacinta",
      "lat": 17.9724624,
      "lng": -92.9247064,
      "nombre": "Gasolinera Guayabal S.A. de C.V.",
      "cre_id": "PL/7893/EXP/ES/2015"
   },
   {
      "marca": "PEMEX",
      "actualizacion": 1545115803865,
      "direccion": "Avenida Melchor Ocampo No. 4179",
      "lat": 17.974011,
      "lng": -102.234431,
      "nombre": "GASOLINERA LIBRAMIENTO LA ORILLA, S.A. DE C.V.",
      "cre_id": "PL/13219/EXP/ES/2016"
   },
   {
      "marca": "G500",
      "actualizacion": 1545115803867,
      "direccion": "16 de Septiembre S/N",
      "lat": 17.975006030596,
      "lng": -92.939433366768,
      "nombre": "GRUPO EMPRESARIAL Y COMERCIAL MONTERREY, SA DE CV",
      "cre_id": "PL/2758/EXP/ES/2015"
   },
   {
      "marca": "PEMEX",
      "actualizacion": 1545115803872,
      "direccion": "Periférico Ricardo Acuna Angles Esquinacamino Rio Seco Sn",
      "lat": 17.976447,
      "lng": -93.384304,
      "nombre": "MULTISERVICIOS EL PASO DEL SUR SA DE CV",
      "cre_id": "PL/12872/EXP/ES/2015"
   },
   {
      "marca": "BP",
      "actualizacion": 1545115803872,
      "direccion": "Periférico Carlos Pellicer Cámara Nº 2738 Esquina Estaiujat",
      "lat": 17.9801068,
      "lng": -92.9727146,
      "nombre": "SERVICIO ULTRA SA DE CV",
      "cre_id": "PL/6184/EXP/ES/2015"
   },
   {
      "marca": "PEMEX",
      "actualizacion": 1545115803879,
      "direccion": "Carretera Villahermosa a La Isla Km 0.800 S/N",
      "lat": 17.988303,
      "lng": -92.981917,
      "nombre": "LA CONTRARIA, S.A. DE C.V.",
      "cre_id": "PL/5564/EXP/ES/2015"
   },
   {
      "marca": "ORSAN",
      "actualizacion": 1545115803880,
      "direccion": "Carretera Federal 180 Cárdenas -Villahermosa Km 145+397.15 Rancheria Platano Y Cacao 4ta. Sección",
      "lat": 17.981858,
      "lng": -93.160341,
      "nombre": "ESTACIONES DE SERVICIO AUTO S.A. DE C.V.",
      "cre_id": "PL/1410/EXP/ES/2015"
   },
   {
      "marca": "PEMEX",
      "actualizacion": 1545115803882,
      "direccion": "Avenida Gregorio Mendez Magana No. 2710",
      "lat": 17.988539,
      "lng": -92.949202,
      "nombre": "AUTO SERVICIO LA GLORIETA, S.A, DE C.V.",
      "cre_id": "PL/3779/EXP/ES/2015"
   },
   {
      "marca": "ORSAN",
      "actualizacion": 1545115803898,
      "direccion": "Avenida Adolfo Ruiz Cortines No. 2107",
      "lat": 17.989583,
      "lng": -92.949564,
      "nombre": "OPERADORA DE ESTACION DE SERVICIO VHERMOSA,SADECV",
      "cre_id": "PL/5082/EXP/ES/2015"
   },
   {
      "marca": "ORSAN",
      "actualizacion": 1545115803901,
      "direccion": "Periférico Carlos Pellicer Camara S/N",
      "lat": 17.988431,
      "lng": -92.964303,
      "nombre": "Olmeca DG SA de CV",
      "cre_id": "PL/3108/EXP/ES/2015"
   },
   {
      "marca": "ORSAN",
      "actualizacion": 1545115803902,
      "direccion": "Calle San Lorenzo Parque Industrialt. Anacleto Canabal 4ta. Secc. Centro Carretera Federal 180 Coatzacoalcos-Villahermosa Km 166+730",
      "lat": 17.987764,
      "lng": -92.988267,
      "nombre": "ESTACIONES DE SERVICIO AUTO S.A. DE C.V.",
      "cre_id": "PL/1431/EXP/ES/2015"
   },
   {
      "marca": "G500",
      "actualizacion": 1545115803904,
      "direccion": "Km 164+600 Carretera Cárdenas -Villahermosa",
      "lat": 17.9890224,
      "lng": -92.9803459,
      "nombre": "AUTOSERVICIO OLMECA S.A. DE C.V.",
      "cre_id": "PL/8710/EXP/ES/2015"
   },
   {
      "marca": "BP",
      "actualizacion": 1545115803906,
      "direccion": "Adolfo Ruíz Cortínez Nº 1902 Esquina Periférico",
      "lat": 17.9873273,
      "lng": -92.9699578,
      "nombre": "SERVICIO VILLA SA DE CV",
      "cre_id": "PL/6421/EXP/ES/2015"
   },
   {
      "marca": "ORSAN",
      "actualizacion": 1545115803913,
      "direccion": "Avenida Justo Sierra No. 141",
      "lat": 17.990992,
      "lng": -94.569808,
      "nombre": "SERVICIO PAQUITAL SA DE CV",
      "cre_id": "PL/6203/EXP/ES/2015"
   },
   {
      "marca": "PEMEX",
      "actualizacion": 1545115803913,
      "direccion": "Boulevard Institutos Tecnologicos No. 268",
      "lat": 17.9929840323324,
      "lng": -94.578046699678,
      "nombre": "Centro Gasolinero Animas, S.A. de C.V.",
      "cre_id": "PL/21112/EXP/ES/2018"
   },
   {
      "marca": "ORSAN",
      "actualizacion": 1545115803921,
      "direccion": "Hidalgo No. 198",
      "lat": 17.991675,
      "lng": -94.54505,
      "nombre": "ESTACIONES DE SERVICIO AUTO S.A. DE C.V.",
      "cre_id": "PL/2976/EXP/ES/2015"
   },
   {
      "marca": "PEMEX",
      "actualizacion": 1545115803921,
      "direccion": "Carretera Zihuatanejo-Lázaro Cárdenas Km 94",
      "lat": 17.992171,
      "lng": -102.161679,
      "nombre": "SUPER SERVICIO NARANJITO, S.A. DE C.V.",
      "cre_id": "PL/9726/EXP/ES/2015"
   },
   {
      "marca": "BP",
      "actualizacion": 1545115803924,
      "direccion": "Avenida Luis Donaldo Colosio Murrieta S/N",
      "lat": 17.9996948,
      "lng": -92.9039028,
      "nombre": "GRUPO PARRILLA, S.A. DE C.V.",
      "cre_id": "PL/3780/EXP/ES/2015"
   },
   {
      "marca": "HIDROSINA",
      "actualizacion": 1545115803927,
      "direccion": "Carretera Transistmica No. 264 Int 651",
      "lat": 17.995632,
      "lng": -94.583081,
      "nombre": "Gasolinera del Sureste S.A. de C.V.",
      "cre_id": "PL/12851/EXP/ES/2015"
   },
   {
      "marca": "HIDROSINA",
      "actualizacion": 1545115803929,
      "direccion": "Boulevard Avila Camacho No. 91",
      "lat": 17.9947357,
      "lng": -94.5412117,
      "nombre": "HIDROSINA PLUS, S.A.P.I. DE C.V.",
      "cre_id": "PL/8276/EXP/ES/2015"
   },
   {
      "marca": "ORSAN",
      "actualizacion": 1545115803931,
      "direccion": "Avenida Lázaro Cárdenas del Rio No. 137",
      "lat": 17.999639,
      "lng": -93.378736,
      "nombre": "SERVICIO SAMARIA S.A. DE C.V.",
      "cre_id": "PL/8356/EXP/ES/2015"
   },
   {
      "marca": "ORSAN",
      "actualizacion": 1545115803937,
      "direccion": "Carretera Cárdenas - Villahermosa Km 124+740",
      "lat": 17.998453,
      "lng": -93.349456,
      "nombre": "ESTACIONES DE SERVICIO AUTO S.A. DE C.V.",
      "cre_id": "PL/2037/EXP/ES/2015"
   },
   {
      "marca": "BP",
      "actualizacion": 1545115803938,
      "direccion": "Km 123+250 Carretera Cárdenas -Villahermosa",
      "lat": 17.9985744,
      "lng": -93.365738,
      "nombre": "Energia DG S de RL de CV",
      "cre_id": "PL/4687/EXP/ES/2015"
   },
   {
      "marca": "G500",
      "actualizacion": 1545115803939,
      "direccion": "Carretera Federal Coatzacoalcos a Cárdenas Margen Derecho Kilometro 120",
      "lat": 17.9992978,
      "lng": -93.3945862,
      "nombre": "MARIA VICTORIA VAZQUEZ TABOADA",
      "cre_id": "PL/4070/EXP/ES/2015"
   },
   {
      "marca": "ORSAN",
      "actualizacion": 1545115803940,
      "direccion": "Avenida Adolfo Ruiz Cortinez No. 304",
      "lat": 17.999578,
      "lng": -92.923347,
      "nombre": "OPERADORA DE ESTACION DE SERVICIO TABASCO, SADECV",
      "cre_id": "PL/5084/EXP/ES/2015"
   },
   {
      "marca": "HIDROSINA",
      "actualizacion": 1545115803941,
      "direccion": "Carretera Circuito del Golfo Cárdenas -Coatzacoalcos S/N",
      "lat": 17.998588,
      "lng": -93.386761,
      "nombre": "SERVICIO SINERGIA CEIBA SA DE CV",
      "cre_id": "PL/13641/EXP/ES/2016"
   },
   {
      "marca": "LA GAS",
      "actualizacion": 1545115803942,
      "direccion": "Avenida Adolfo Ruiz Cortines No. 903 Fraccionamiento Arboledas",
      "lat": 18.000339,
      "lng": -92.919689,
      "nombre": "ESTACIONES DE SERVICIO AUTO S.A. DE C.V.",
      "cre_id": "PL/1413/EXP/ES/2015"
   },
   {
      "marca": "LA GAS",
      "actualizacion": 1545115803948,
      "direccion": "Prolongación Paseo Francisco Javier Mina Y Eusebio Castillo No. 324",
      "lat": 18.005681,
      "lng": -92.924247,
      "nombre": "E.S.G.E.S. S.A DE C.V",
      "cre_id": "PL/9090/EXP/ES/2015"
   },
   {
      "marca": "PEMEX",
      "actualizacion": 1545115803959,
      "direccion": "Autopista Tinaja Sayula Kilometro 152+241.49",
      "lat": 18.006737,
      "lng": -95.258916,
      "nombre": "Hidrocarburos La Marquesilla, S.A. de C.V.",
      "cre_id": "PL/9185/EXP/ES/2015"
   },
   {
      "marca": "G500",
      "actualizacion": 1545115803963,
      "direccion": "Prolongación Francisco Javier Mina No. 1809",
      "lat": 18.0093946,
      "lng": -92.9191396,
      "nombre": "SERVICIO EL NEGRO, S.A. DE C.V.",
      "cre_id": "PL/2926/EXP/ES/2015"
   },
   {
      "marca": "G500",
      "actualizacion": 1545115803978,
      "direccion": "Avenida Prof Ramon Mendoza Herrera No. 223 Esquina Paseo de Las Flores",
      "lat": 18.0093946,
      "lng": -92.9191396,
      "nombre": "OPERADORA Y COMERCIALIZADORA DEL ITSMO, S.A.DE C.V",
      "cre_id": "PL/5569/EXP/ES/2015"
   },
   {
      "marca": "ORSAN",
      "actualizacion": 1545115803978,
      "direccion": "Carretera Villahermosa - Frontera No. 423",
      "lat": 18.016033,
      "lng": -92.913731,
      "nombre": "ESTACIONES DE SERVICIO AUTO S.A. DE C.V.",
      "cre_id": "PL/1433/EXP/ES/2015"
   },
   {
      "marca": "PEMEX",
      "actualizacion": 1545115803990,
      "direccion": "Periférico Carlos Pellicer Camara S/N",
      "lat": 18.024829,
      "lng": -92.935494,
      "nombre": "SERVICIO PERIMENDEZ S.A. DE C.V.",
      "cre_id": "PL/4494/EXP/ES/2015"
   },
   {
      "marca": "PEMEX",
      "actualizacion": 1545115804011,
      "direccion": "Km 6 Carretera Tuxtepec – Oaxaca",
      "lat": 18.04059,
      "lng": -96.16289,
      "nombre": "SERVICIO SEBASTOPOL S.A. DE C.V.",
      "cre_id": "PL/3448/EXP/ES/2015"
   },
   {
      "marca": "PEMEX",
      "actualizacion": 1545115804019,
      "direccion": "Carretera Coatzacoalcos-Villahermosa Km 35+250",
      "lat": 18.0530490003,
      "lng": -94.1343685368,
      "nombre": "ALICIA  LIZETH  BREMONT  JONES",
      "cre_id": "PL/6387/EXP/ES/2015"
   },
   {
      "marca": "HIDROSINA",
      "actualizacion": 1545115804033,
      "direccion": "Carretera Juárez Chiapas a Dos Bocas Paraiso S/N",
      "lat": 18.069121,
      "lng": -93.164282,
      "nombre": "HIDROSINA PLUS, S.A.P.I. DE C.V.",
      "cre_id": "PL/8298/EXP/ES/2015"
   },
   {
      "marca": "PEMEX",
      "actualizacion": 1545115804036,
      "direccion": "Carretera Coatzacoalcos-Villahermosa Km 14+800",
      "lat": 18.07257,
      "lng": -94.31298,
      "nombre": "SERVICIO SUJUXI S.A. DE C.V.",
      "cre_id": "PL/5388/EXP/ES/2015"
   },
   {
      "marca": "PEMEX",
      "actualizacion": 1545115804047,
      "direccion": "Domicilio Conocido S/N Sección Tercera",
      "lat": 18.079676,
      "lng": -96.530481,
      "nombre": "ESTACIÓN DE SERVICIOS ARROYO VENADO SA. DE CV.",
      "cre_id": "PL/3578/EXP/ES/2015"
   },
   {
      "marca": "REPSOL",
      "actualizacion": 1545115804052,
      "direccion": "Boulevard Plan de Tuxtepec No. 1",
      "lat": 18.08178,
      "lng": -96.13903,
      "nombre": "SERVICIO GILGA S.A. DE C.V.",
      "cre_id": "PL/3444/EXP/ES/2015"
   },
   {
      "marca": "PEMEX",
      "actualizacion": 1545115804055,
      "direccion": "Boulevard Manuel Ávila Camacho No. 523",
      "lat": 18.0902933769083,
      "lng": -96.1270219206609,
      "nombre": "ESTEBAN TERESA CERECEDO DEL ANGEL",
      "cre_id": "PL/20040/EXP/ES/2017"
   },
   {
      "marca": "REPSOL",
      "actualizacion": 1545115804057,
      "direccion": "Boulevard Benito Juárez No. 1",
      "lat": 18.09306,
      "lng": -96.1286,
      "nombre": "GASOLINERIA COSTA VERDE S DE RL DE CV",
      "cre_id": "PL/7266/EXP/ES/2015"
   },
   {
      "marca": "LA GAS",
      "actualizacion": 1545115804074,
      "direccion": "Carretera Villahermosa - Frontera Km 11+300. R/A Francisco I. Madero",
      "lat": 18.113959,
      "lng": -92.864857,
      "nombre": "GASOLINERA CD INDUSTRIAL SA DE CV",
      "cre_id": "PL/6175/EXP/ES/2015"
   },
   {
      "marca": "ORSAN",
      "actualizacion": 1545115804086,
      "direccion": "Carretera Transismica Km 57.5 Coatzacoalcos",
      "lat": 18.114886,
      "lng": -94.446911,
      "nombre": "ESTACIONES DE SERVICIO AUTO S.A. DE C.V.",
      "cre_id": "PL/2987/EXP/ES/2015"
   },
   {
      "marca": "PEMEX",
      "actualizacion": 1545115804088,
      "direccion": "Carretera Transístmica Coatza -Mina Km 7",
      "lat": 18.1174,
      "lng": -94.44614,
      "nombre": "SERVICIO RIO CALZADAS SA DE CV",
      "cre_id": "PL/6135/EXP/ES/2015"
   },
   {
      "marca": "ORSAN",
      "actualizacion": 1545115804104,
      "direccion": "Carretera Coatzacoalcos-Minatitlán Km 35 1° de Mayo",
      "lat": 18.128592,
      "lng": -94.438739,
      "nombre": "ESTACIONES DE SERVICIO AUTO S.A. DE C.V.",
      "cre_id": "PL/2765/EXP/ES/2015"
   },
   {
      "marca": "PEMEX",
      "actualizacion": 1545115804111,
      "direccion": "Mariano Matamoros No. 1127",
      "lat": 18.14407,
      "lng": -94.42782,
      "nombre": "GASOLINERA TRANSISTMICA SA DE CV",
      "cre_id": "PL/10959/EXP/ES/2015"
   },
   {
      "marca": "ORSAN",
      "actualizacion": 1545115804112,
      "direccion": "Zaragoza Esquina Aquiles Serdan S/N",
      "lat": 18.13705,
      "lng": -94.434458,
      "nombre": "ESTACIONES DE SERVICIO AUTO S.A. DE C.V.",
      "cre_id": "PL/2842/EXP/ES/2015"
   },
   {
      "marca": "HIDROSINA",
      "actualizacion": 1545115804128,
      "direccion": "Avenida Las Palmas No. 101 Norte",
      "lat": 18.143298,
      "lng": -94.473048,
      "nombre": "HIDROSINA PLUS, S.A.P.I. DE C.V.",
      "cre_id": "PL/8181/EXP/ES/2015"
   },
   {
      "marca": "ORSAN",
      "actualizacion": 1545115804131,
      "direccion": "Juárez S/N Esquina Abasolo",
      "lat": 18.138928,
      "lng": -94.434339,
      "nombre": "ESTACIONES DE SERVICIO AUTO S.A. DE C.V.",
      "cre_id": "PL/2763/EXP/ES/2015"
   },
   {
      "marca": "BP",
      "actualizacion": 1545115804133,
      "direccion": "Carretera Tehuacan - Teotitlán Km 60.3 S/N",
      "lat": 18.1471025,
      "lng": -97.0843869,
      "nombre": "HERMELINDA DE LOS SANTOS VALERIO",
      "cre_id": "PL/6674/EXP/ES/2015"
   },
   {
      "marca": "G500",
      "actualizacion": 1545115804135,
      "direccion": "Carretera Samaria-Amatitan Km 9+765 Tramo Cunduacan-Jalpa de Mendez",
      "lat": 18.149066,
      "lng": -93.1066687,
      "nombre": "INMOBILIARIA EL CARMELO SA DE CV",
      "cre_id": "PL/4271/EXP/ES/2015"
   },
   {
      "marca": "PEMEX",
      "actualizacion": 1545115804138,
      "direccion": "Vicente Riva Palacios 1110",
      "lat": 18.1497790497528,
      "lng": -94.4628031779098,
      "nombre": "SERVICIO PLAYA DEL MAR SA DE CV",
      "cre_id": "PL/10962/EXP/ES/2015"
   },
   {
      "marca": "PEMEX",
      "actualizacion": 1545115804140,
      "direccion": "Coatzacoalcos a Congregación Banderillas M-60",
      "lat": 18.1513311773,
      "lng": -94.5523360449,
      "nombre": "NUESTRA SEÑORA DEL TEPEYAC S.A. DE C.V.",
      "cre_id": "PL/8227/EXP/ES/2015"
   },
   {
      "marca": "PEMEX",
      "actualizacion": 1545115804147,
      "direccion": "Aut. La Tinaja-Sayula Tramo Cosamaloapan-Acayucan Km 118.25",
      "lat": 18.1555945145,
      "lng": -95.5361871358,
      "nombre": "SERVICIO A & J SA DE CV",
      "cre_id": "PL/12014/EXP/ES/2015"
   },
   {
      "marca": "ORSAN",
      "actualizacion": 1545115804149,
      "direccion": "Villahermosa-Frontera Km 21+500",
      "lat": 18.160494,
      "lng": -92.859739,
      "nombre": "ESTACIONES DE SERVICIO AUTO S.A. DE C.V.",
      "cre_id": "PL/1416/EXP/ES/2015"
   },
   {
      "marca": "LA GAS",
      "actualizacion": 1545115804168,
      "direccion": "Calle 10 S/N Entre 17 Y 21",
      "lat": 18.19567,
      "lng": -91.0462,
      "nombre": "GRUPO GASOLINERO VILLAMON SA DE CV",
      "cre_id": "PL/1892/EXP/ES/2015"
   },
   {
      "marca": "ORSAN",
      "actualizacion": 1545115804177,
      "direccion": "Via Corta Comalcalco-Cunduacan Km 28000",
      "lat": 18.206433,
      "lng": -93.205406,
      "nombre": "ESTACIONES DE SERVICIO AUTO S.A. DE C.V.",
      "cre_id": "PL/2214/EXP/ES/2015"
   },
   {
      "marca": "PEMEX",
      "actualizacion": 1545115804178,
      "direccion": "Carretera Carlos A. Carrillo Entronque Pueblo Nvo. S/N",
      "lat": 18.229024,
      "lng": -95.939636,
      "nombre": "Gasolineria  y Servicios de Tlacojalpan, S.A. de C",
      "cre_id": "PL/7251/EXP/ES/2015"
   },
   {
      "marca": "HIDROSINA",
      "actualizacion": 1545115804202,
      "direccion": "Prolongación de Ignacio López Rayon No. 602",
      "lat": 18.25397,
      "lng": -93.23271,
      "nombre": "ESTACIONES DE SERVICIO AUTO S.A. DE C.V.",
      "cre_id": "PL/18913/EXP/ES/2016"
   },
   {
      "marca": "HIDROSINA",
      "actualizacion": 1545115804209,
      "direccion": "Boulevard Adolfo López Mateos S/N",
      "lat": 18.266788,
      "lng": -93.220298,
      "nombre": "JORGE RENE DOMINGUEZ PEREZ",
      "cre_id": "PL/12889/EXP/ES/2015"
   },
   {
      "marca": "BP",
      "actualizacion": 1545115804213,
      "direccion": "Km 40 Carretera Tehuacan-Teotilan",
      "lat": 18.2679686,
      "lng": -97.1612555,
      "nombre": "SERVCIOS INTEGRALES SAN MIGUEL, S. A. DE C. V.",
      "cre_id": "PL/6672/EXP/ES/2015"
   },
   {
      "marca": "PEMEX",
      "actualizacion": 1545115804213,
      "direccion": "Carretera Comalcalco-Tecolutilla Km 15",
      "lat": 18.2759,
      "lng": -93.319526,
      "nombre": "SERVICIO REGIO CUATRO, S.A. DE C.V.",
      "cre_id": "PL/8872/EXP/ES/2015"
   },
   {
      "marca": "HIDROSINA",
      "actualizacion": 1545115804214,
      "direccion": "Carretera Fed. a Paraiso Y Calle Guillermo Prieto Sn",
      "lat": 18.274346,
      "lng": -93.218774,
      "nombre": "HIDROSINA PLUS, S.A.P.I. DE C.V.",
      "cre_id": "PL/8272/EXP/ES/2015"
   },
   {
      "marca": "PEMEX",
      "actualizacion": 1545115804220,
      "direccion": "Carretera Cuernavaca- Chilpancingo, Km. 129",
      "lat": 18.29172,
      "lng": -99.5092,
      "nombre": "NESTOR RODRIGUEZ DOMINGUEZ",
      "cre_id": "PL/20808/EXP/ES/2018"
   },
   {
      "marca": "PEMEX",
      "actualizacion": 1545115804223,
      "direccion": "Carretera Iguala-Huitzuco Km 18.5",
      "lat": 18.296517,
      "lng": -99.459777,
      "nombre": "ESTACION DE SERVICIO TRUJANO SA DE CV",
      "cre_id": "PL/8098/EXP/ES/2015"
   },
   {
      "marca": "PEMEX",
      "actualizacion": 1545115804224,
      "direccion": "Galeana Esquina Francisco Javier Mina No. 42",
      "lat": 18.31384,
      "lng": -101.73656,
      "nombre": "RENE CORREA HUERTA",
      "cre_id": "PL/7567/EXP/ES/2015"
   },
   {
      "marca": "BP",
      "actualizacion": 1545115804232,
      "direccion": "Carretera Tehuacan-Teotitlán Km 27 Margen Sur",
      "lat": 18.3264828,
      "lng": -97.2334624,
      "nombre": "DE LOS SANTOS, S. A. DE C. V.",
      "cre_id": "PL/6677/EXP/ES/2015"
   },
   {
      "marca": "PEMEX",
      "actualizacion": 1545115804232,
      "direccion": "Carretera Internacional Cristobal Colon Km 114",
      "lat": 18.326972,
      "lng": -98.269483,
      "nombre": "HERMENEGILDO LOPEZ ARMENTA",
      "cre_id": "PL/12554/EXP/ES/2015"
   },
   {
      "marca": "PEMEX",
      "actualizacion": 1545115804260,
      "direccion": "Avenida Rey Irepan No. 1138",
      "lat": 18.3431861111111,
      "lng": -100.653044444444,
      "nombre": "Autoservicios Tierra Caliente S. A. de C. V.",
      "cre_id": "PL/8727/EXP/ES/2015"
   },
   {
      "marca": "PEMEX",
      "actualizacion": 1545115804265,
      "direccion": "Zaragoza No. 88 Esquina Delicias",
      "lat": 18.347504,
      "lng": -99.545808,
      "nombre": "MARTHA PATRICIA RODRIGUEZ DOMINGUEZ",
      "cre_id": "PL/4660/EXP/ES/2015"
   },
   {
      "marca": "PEMEX",
      "actualizacion": 1545115804268,
      "direccion": "Calzada Rey Irepan Oriente No. 101",
      "lat": 18.35612,
      "lng": -100.66888,
      "nombre": "LA UNICA GASOLINERA SANTAMARIA, S.A. DE C.V.",
      "cre_id": "PL/1045/EXP/ES/2015"
   },
   {
      "marca": "PEMEX",
      "actualizacion": 1545115804272,
      "direccion": "Boulevard Miguel Aleman S/N",
      "lat": 18.35707,
      "lng": -95.80376,
      "nombre": "BRAVO COMBUSTIBLES Y LUBRICANTES SA DE CV",
      "cre_id": "PL/6071/EXP/ES/2015"
   },
   {
      "marca": "BP",
      "actualizacion": 1545115804274,
      "direccion": "Carretera Teahuacan - Teotitlán S/N",
      "lat": 18.3627709,
      "lng": -97.2760505,
      "nombre": "JARAL DE PEÑALES Y ASOCIADOS, S. A. DE C. V.",
      "cre_id": "PL/6908/EXP/ES/2015"
   },
   {
      "marca": "PEMEX",
      "actualizacion": 1545115804282,
      "direccion": "Carretera Iguala-Cd. Altamirano Km 145 Margen Derecho",
      "lat": 18.365333,
      "lng": -100.271907,
      "nombre": "HUMBERTO FLORES JIMENEZ",
      "cre_id": "PL/10150/EXP/ES/2015"
   },
   {
      "marca": "BP",
      "actualizacion": 1545115804287,
      "direccion": "Carretera Tehuacan-Teotitlán Km 15",
      "lat": 18.3755158,
      "lng": -97.294354,
      "nombre": "DE LOS SANTOS, S. A. DE C. V.",
      "cre_id": "PL/6592/EXP/ES/2015"
   },
   {
      "marca": "PEMEX",
      "actualizacion": 1545115804287,
      "direccion": "Boulevard Manuel Antonio Romero Zurita S/N.",
      "lat": 18.380631,
      "lng": -93.222095,
      "nombre": "super servicio quijote sa de cv",
      "cre_id": "PL/12622/EXP/ES/2015"
   },
   {
      "marca": "PEMEX",
      "actualizacion": 1545115804290,
      "direccion": "Carretera Cd. Altamirano-San Lucas Km 1.5",
      "lat": 18.3773277777778,
      "lng": -100.669047222222,
      "nombre": "Gasolinera Rio Balsas S.A. de C.V.",
      "cre_id": "PL/12720/EXP/ES/2015"
   },
   {
      "marca": "PEMEX",
      "actualizacion": 1545115804290,
      "direccion": "Beneficencia No. 54 Esquina Con Carretera Axochiapan",
      "lat": 18.37878,
      "lng": -98.69082,
      "nombre": "OMAR PAUL VERGARA NAJERA",
      "cre_id": "PL/4513/EXP/ES/2015"
   },
   {
      "marca": "PEMEX",
      "actualizacion": 1545115804297,
      "direccion": "Carretera Federal Villahermosa Frontera Km 50",
      "lat": 18.38702,
      "lng": -92.796225,
      "nombre": "OPERADORA MAGNA CRUZ, S.A. DE C.V.",
      "cre_id": "PL/7194/EXP/ES/2015"
   },
   {
      "marca": "LA GAS",
      "actualizacion": 1545115804297,
      "direccion": "Carretera Escarcega- Villahermosa Km 239",
      "lat": 18.38842,
      "lng": -91.19186,
      "nombre": "E.S.G.E.S. S.A DE C.V",
      "cre_id": "PL/8406/EXP/ES/2015"
   },
   {
      "marca": "PEMEX",
      "actualizacion": 1545115804303,
      "direccion": "20 de Noviembre No. 16",
      "lat": 18.4008939098589,
      "lng": -97.3295682711639,
      "nombre": "Combustibles el Crucero, SA DE CV",
      "cre_id": "PL/3216/EXP/ES/2015"
   },
   {
      "marca": "ORSAN",
      "actualizacion": 1545115804305,
      "direccion": "Libramiento a Puerto Dos Bocas No. 841 Esquina Cristobal Colon",
      "lat": 18.409628,
      "lng": -93.214028,
      "nombre": "SERVICIO VILLA SA DE CV",
      "cre_id": "PL/19511/EXP/ES/2016"
   },
   {
      "marca": "PEMEX",
      "actualizacion": 1545115804332,
      "direccion": "Ignacio Zaragoza 224 Esquina Martires de Rio Blanco",
      "lat": 18.449825,
      "lng": -96.355987,
      "nombre": "SERVICIO VAZMOY SA DE CV",
      "cre_id": "PL/6790/EXP/ES/2015"
   },
   {
      "marca": "PEMEX",
      "actualizacion": 1545115804339,
      "direccion": "Avenida Independencia No. 501",
      "lat": 18.451967,
      "lng": -97.370353,
      "nombre": "INMOBILIARIA SOCORRO ROMERO SANCHEZ S.A. DE C.V.",
      "cre_id": "PL/3274/EXP/ES/2015"
   },
   {
      "marca": "PEMEX",
      "actualizacion": 1545115804356,
      "direccion": "Km 61 Carretera Cuapiaxtla-Ixcaquixtla-Puebla",
      "lat": 18.466995,
      "lng": -97.849917,
      "nombre": "ANAYANTZI CORDOVA DIAZ",
      "cre_id": "PL/9106/EXP/ES/2015"
   },
   {
      "marca": "PEMEX",
      "actualizacion": 1545115804359,
      "direccion": "Carretera Federal Zirándaro-Altamirano No. 2030",
      "lat": 18.470978,
      "lng": -100.980531,
      "nombre": "SUPERSERVICIOS SAN AGUSTIN, S.A. DE C.V.",
      "cre_id": "PL/948/EXP/ES/2015"
   },
   {
      "marca": "BP",
      "actualizacion": 1545115804361,
      "direccion": "Carretera Federal Tinajas-Ciudad Aleman Km 33.04",
      "lat": 18.4752237,
      "lng": -96.3638045,
      "nombre": "RZ GASOLINERIAS S. A. DE C.V.",
      "cre_id": "PL/4651/EXP/ES/2015"
   },
   {
      "marca": "LA GAS",
      "actualizacion": 1545115804373,
      "direccion": "Avenida Álvaro Obregón No. 342 346 Y 348 Mz. 3",
      "lat": 18.49746,
      "lng": -88.30565,
      "nombre": "INMOBILIARIA KUKULKAN S.A. DE C.V.",
      "cre_id": "PL/1684/EXP/ES/2015"
   },
   {
      "marca": "PEMEX",
      "actualizacion": 1545115804376,
      "direccion": "Avenida Independencia No. 55",
      "lat": 18.499076,
      "lng": -98.751102,
      "nombre": "MONICA SANABRIA MANJARREZ",
      "cre_id": "PL/11380/EXP/ES/2015"
   },
   {
      "marca": "PEMEX",
      "actualizacion": 1545115804379,
      "direccion": "Carretera Tehuixtla - Tilzapotla Km 7",
      "lat": 18.503275,
      "lng": -99.279485,
      "nombre": "CORPORATIVO TILZAPOTLA S.A. DE C.V.",
      "cre_id": "PL/3407/EXP/ES/2015"
   },
   {
      "marca": "PEMEX",
      "actualizacion": 1545115804434,
      "direccion": "Avenida de Los Héroes No. 242 Lt. 27",
      "lat": 18.506829,
      "lng": -88.294619,
      "nombre": "ARCO NORTE COMBUSTIBLES S.A. DE C.V.",
      "cre_id": "PL/1896/EXP/ES/2015"
   },
   {
      "marca": "FULLGAS",
      "actualizacion": 1545115804439,
      "direccion": "Avenida Andrés Quintana Roo Esquina Con Calle Camelias No. 274",
      "lat": 18.510114,
      "lng": -88.305187,
      "nombre": "Servicios Ecológicos del Mayab S. de R.L. de C.V.",
      "cre_id": "PL/12672/EXP/ES/2015"
   },
   {
      "marca": "LA GAS",
      "actualizacion": 1545115804444,
      "direccion": "Avenida Periférico 3412 Esquina Calle Ramón López Velarde",
      "lat": 18.51364,
      "lng": -88.27996,
      "nombre": "SERVICIOS GASEROS DEL GOLFO SA DE CV",
      "cre_id": "PL/13607/EXP/ES/2016"
   },
   {
      "marca": "FULLGAS",
      "actualizacion": 1545115804455,
      "direccion": "Calle Carlos Riva Palacios por Avenida Javier Rojo Gómez, Número 371",
      "lat": 18.516654,
      "lng": -88.318318,
      "nombre": "Servicios Ecológicos Mayapan S.A. de C.V.",
      "cre_id": "PL/20928/EXP/ES/2018"
   },
   {
      "marca": "PEMEX",
      "actualizacion": 1545115804461,
      "direccion": "Avenida Insurgentes 859-A Prolongación Aaron Merino Fernandez",
      "lat": 18.5188043068401,
      "lng": -88.3251477374344,
      "nombre": "SERVICOMBUSTIBLES INSURGENTES  S.A. DE C.V.",
      "cre_id": "PL/9675/EXP/ES/2015"
   },
   {
      "marca": "PEMEX",
      "actualizacion": 1545115804469,
      "direccion": "Km 106.080 Carretera Fed. Puebla-Tehuacan",
      "lat": 18.518680635358,
      "lng": -97.5033224748688,
      "nombre": "AGUSTIN CASTILLO RODRIGUEZ",
      "cre_id": "PL/5986/EXP/ES/2015"
   },
   {
      "marca": "LA GAS",
      "actualizacion": 1545115804473,
      "direccion": "Avenida Insurgentes Con Avenida Belice S/N",
      "lat": 18.51959,
      "lng": -88.29958,
      "nombre": "SERVICOMBUSTIBLES DEL CARIBE S.A. DE C.V.",
      "cre_id": "PL/7534/EXP/ES/2015"
   },
   {
      "marca": "FULLGAS",
      "actualizacion": 1545115804485,
      "direccion": "Calzada del Centenario No. 551 Entre Francisco Zarco N.137 Y Prolongación Avenida Los Heroes",
      "lat": 18.530356,
      "lng": -88.280452,
      "nombre": "MULTISERVICIOS PETROLIFEROS DE QUINTANA ROO SA CV",
      "cre_id": "PL/4553/EXP/ES/2015"
   },
   {
      "marca": "FULLGAS",
      "actualizacion": 1545115804505,
      "direccion": "Avenida Maxuxac Lt.S No. 8 9 Y 10",
      "lat": 18.531639,
      "lng": -88.298705,
      "nombre": "Servicios Ecológicos del Mayab S. de R.L. de C.V.",
      "cre_id": "PL/10620/EXP/ES/2015"
   },
   {
      "marca": "PEMEX",
      "actualizacion": 1545115804537,
      "direccion": "Boulevard Adolfo López Mateos Y Calle de La Fundicion",
      "lat": 18.552592,
      "lng": -99.267806,
      "nombre": "ESTACION DE SERVICIO TEHUIXTLA S.A. DE C.V.",
      "cre_id": "PL/3413/EXP/ES/2015"
   },
   {
      "marca": "NEXUM",
      "actualizacion": 1545115804588,
      "direccion": "Carretera Jojutla -Tlatenchi-Tequesquitengo S/N",
      "lat": 18.6009,
      "lng": -99.203632,
      "nombre": "SERVICIO CIRCUITO INTERIOR, SA DE CV  E10888",
      "cre_id": "PL/2062/EXP/ES/2015"
   },
   {
      "marca": "PEMEX",
      "actualizacion": 1545115804591,
      "direccion": "Carretera Cuautla-Axochiapan No. 6",
      "lat": 18.602911,
      "lng": -98.839531,
      "nombre": "SERVICIO CATTAR, S.A. DE C.V.",
      "cre_id": "PL/9390/EXP/ES/2015"
   },
   {
      "marca": "FULLGAS",
      "actualizacion": 1545115804597,
      "direccion": "Calle 30 (Avenida Héctor Pérez Martínez) Lt. 3",
      "lat": 18.605593,
      "lng": -90.735283,
      "nombre": "Servicios Ecológicos Muyil S.A. de C.V.",
      "cre_id": "PL/13638/EXP/ES/2016"
   },
   {
      "marca": "LA GAS",
      "actualizacion": 1545115804608,
      "direccion": "Escarcega Carretera Campeche Villahermosa Km 152",
      "lat": 18.60761,
      "lng": -90.74789,
      "nombre": "SERVICIOS ESPECIALES S.A. DE C.V.",
      "cre_id": "PL/9639/EXP/ES/2015"
   },
   {
      "marca": "PEMEX",
      "actualizacion": 1545115804629,
      "direccion": "Carretera Omealca Tezonapa Km 37",
      "lat": 18.6201847888,
      "lng": -96.6997104056,
      "nombre": "COMBUSTIBLES DE TEZONAPA, S.A. DE C.V.",
      "cre_id": "PL/5094/EXP/ES/2015"
   },
   {
      "marca": "PEMEX",
      "actualizacion": 1545115804662,
      "direccion": "Hidalgo Esquina Km 20",
      "lat": 18.640152,
      "lng": -96.239152,
      "nombre": "LA GRAN ISLETA S.A. DE C.V.",
      "cre_id": "PL/12811/EXP/ES/2015"
   },
   {
      "marca": "LA GAS",
      "actualizacion": 1545115804663,
      "direccion": "Carretera Federal Carmen - Champotón Km 42 Fracción del Predio Urbano S/N Fracción \"A\"",
      "lat": 18.64817,
      "lng": -91.80485,
      "nombre": "Servicios Ecológicos de Calkiní S.A. de C.V.",
      "cre_id": "PL/19520/EXP/ES/2016"
   },
   {
      "marca": "PEMEX",
      "actualizacion": 1545115804674,
      "direccion": "Calle 26 Por 49 No. 186",
      "lat": 18.6468859705838,
      "lng": -91.8441589609909,
      "nombre": "SERVICIO DE GASOLINERIA BADILLO LLITERAS SA DE CV",
      "cre_id": "PL/9935/EXP/ES/2015"
   },
   {
      "marca": "PEMEX",
      "actualizacion": 1545115804688,
      "direccion": "Km 172 Carretera Zitacuaro-Huetamo S/N",
      "lat": 18.65182,
      "lng": -100.89749,
      "nombre": "SCU011029V7A",
      "cre_id": "PL/13360/EXP/ES/2016"
   },
   {
      "marca": "ORSAN",
      "actualizacion": 1545115804694,
      "direccion": "Avenida Isla de Tris Lt. 9",
      "lat": 18.652564,
      "lng": -91.794878,
      "nombre": "SERVICIO DE COMBUSTIBLES RAYMEL SA DE CV",
      "cre_id": "PL/1296/EXP/ES/2015"
   },
   {
      "marca": "ORSAN",
      "actualizacion": 1545115804697,
      "direccion": "Avenida Periferica Norte Esquina Calle 35-B",
      "lat": 18.65545,
      "lng": -91.816903,
      "nombre": "COMBUSTIBLES LUGO SA DE CV",
      "cre_id": "PL/5817/EXP/ES/2015"
   },
   {
      "marca": "PEMEX",
      "actualizacion": 1545115804705,
      "direccion": "Avenida Prolongación Ignacio Zaragoza S/N",
      "lat": 18.6583519831,
      "lng": -96.9974891434,
      "nombre": "Combustibles la Quinta SA de CV",
      "cre_id": "PL/7645/EXP/ES/2015"
   },
   {
      "marca": "G500",
      "actualizacion": 1545115804710,
      "direccion": "Avenida Juárez No. 245",
      "lat": 18.6556472,
      "lng": -91.8293527,
      "nombre": "Gaeli Diesel, S.A. de C.V.",
      "cre_id": "PL/872/EXP/ES/2015"
   },
   {
      "marca": "FULLGAS",
      "actualizacion": 1545115804718,
      "direccion": "Avenida San Lucas Resto Sección 1 del Lt. 4",
      "lat": 18.66566,
      "lng": -91.757452,
      "nombre": "Servicios Ecológicos Malecón S.A. de C.V.",
      "cre_id": "PL/19521/EXP/ES/2016"
   },
   {
      "marca": "PEMEX",
      "actualizacion": 1545115804732,
      "direccion": "Km 40 Carretera Tecoman-Playa Azul",
      "lat": 18.674958,
      "lng": -103.680943,
      "nombre": "SERVICIOS GASOLINEROS DE MEXICO, S.A. DE C.V.",
      "cre_id": "PL/7466/EXP/ES/2015"
   },
   {
      "marca": "FULLGAS",
      "actualizacion": 1545115804732,
      "direccion": "Calle Bacalar-Chetumal S/N Entre Lt. 01 Y Mz. 41",
      "lat": 18.68109,
      "lng": -88.39333,
      "nombre": "MULTISERVICIOS PETROLIFEROS DE QUINTANA ROO SA CV",
      "cre_id": "PL/4550/EXP/ES/2015"
   },
   {
      "marca": "TOTAL",
      "actualizacion": 1545115804736,
      "direccion": "Km 1 Libramiento Norte de Amatepec",
      "lat": 18.6854831,
      "lng": -100.1834128,
      "nombre": "2PM SA DE CV",
      "cre_id": "PL/3176/EXP/ES/2015"
   },
   {
      "marca": "PEMEX",
      "actualizacion": 1545115804778,
      "direccion": "Carretera Internacional No. 11",
      "lat": 18.72154,
      "lng": -98.45109,
      "nombre": "SERVICIO TEPEOJUM S.A. DE C.V.",
      "cre_id": "PL/6739/EXP/ES/2015"
   },
   {
      "marca": "PEMEX",
      "actualizacion": 1545115804799,
      "direccion": "Carretera Fed.Sat.Barbara-I.Mat.Tramo Cuautla Amayuca Km 89.81",
      "lat": 18.736574,
      "lng": -98.822124,
      "nombre": "GABINO RAFAEL VERGARA ROMERO",
      "cre_id": "PL/5813/EXP/ES/2015"
   },
   {
      "marca": "PEMEX",
      "actualizacion": 1545115804812,
      "direccion": "Carretera Zapata-Zacatepec Esquina Camino San Jose",
      "lat": 18.749711,
      "lng": -99.203086,
      "nombre": "OPERADORA ALMOFAR S.A. DE C.V.",
      "cre_id": "PL/8642/EXP/ES/2015"
   },
   {
      "marca": "BP",
      "actualizacion": 1545115804813,
      "direccion": "Km 1+150 del Tramo La Tinaja-Tierra Blanca Carretera La Tinaja-Cd. Aleman",
      "lat": 18.750246,
      "lng": -96.4608893,
      "nombre": "COMERCIALIZADORA DE COMBUSTIBLES TIFA SA DE CV",
      "cre_id": "PL/5606/EXP/ES/2015"
   },
   {
      "marca": "PEMEX",
      "actualizacion": 1545115804818,
      "direccion": "Parcela 124 Z I P-1 S/N",
      "lat": 18.756421,
      "lng": -99.242833,
      "nombre": "OPERADORA DE MINIESTACIONES COMBUSERV, S.A. DE C.V",
      "cre_id": "PL/11330/EXP/ES/2015"
   },
   {
      "marca": "PEMEX",
      "actualizacion": 1545115804832,
      "direccion": "Pablo Torres Burgos No. 75",
      "lat": 18.76206,
      "lng": -98.983811,
      "nombre": "servicio migajas sa de cv",
      "cre_id": "PL/1472/EXP/ES/2015"
   },
   {
      "marca": "RUTA GASOLINERA",
      "actualizacion": 1545115804845,
      "direccion": "Carretera Santa Bárbara a Izúcar de Matamoros Puebla Km 81.1",
      "lat": 18.77124,
      "lng": -98.89488,
      "nombre": "ESTACION DE SERVICIO PLAN DE AYALA,SA DE CV (E9080",
      "cre_id": "PL/2628/EXP/ES/2015"
   },
   {
      "marca": "LA GAS",
      "actualizacion": 1545115804871,
      "direccion": "Mz. 46 Zona 1 Lt. 1 S/N",
      "lat": 18.78428,
      "lng": -91.49183,
      "nombre": "E.S.G.E.S. S.A DE C.V",
      "cre_id": "PL/9088/EXP/ES/2015"
   },
   {
      "marca": "PEMEX",
      "actualizacion": 1545115804878,
      "direccion": "Km 55+800 Carretera Federal El Seco Azumbilla",
      "lat": 18.791808,
      "lng": -97.41492,
      "nombre": "AGUSTIN JORGE FERNANDO OSORIO MIRON",
      "cre_id": "PL/3980/EXP/ES/2015"
   },
   {
      "marca": "BP",
      "actualizacion": 1545115804880,
      "direccion": "Prolongación de Avenida Benito Juárez No 38-A Bis",
      "lat": 18.7942525,
      "lng": -97.1941765,
      "nombre": "PETRORAC S.A. DE C.V.",
      "cre_id": "PL/5717/EXP/ES/2015"
   },
   {
      "marca": "PEMEX",
      "actualizacion": 1545115804894,
      "direccion": "Cruce Carretera Tezoyuca-Tepetzingo",
      "lat": 18.802668,
      "lng": -99.197881,
      "nombre": "CORPORACIÓN GASOLINERA MILLENIUM, S.A. DE C.V.",
      "cre_id": "PL/8900/EXP/ES/2015"
   },
   {
      "marca": "PEMEX",
      "actualizacion": 1545115804914,
      "direccion": "Rafael Tapia No. 1",
      "lat": 18.80934,
      "lng": -97.17491,
      "nombre": "MARVA Energéticos S.A. de C.V.",
      "cre_id": "PL/2606/EXP/ES/2015"
   },
   {
      "marca": "BP",
      "actualizacion": 1545115804915,
      "direccion": "Avenida Benito Juárez No. 401",
      "lat": 18.8125823,
      "lng": -97.1711391,
      "nombre": "PETRORAC S.A. DE C.V.",
      "cre_id": "PL/5712/EXP/ES/2015"
   },
   {
      "marca": "PEMEX",
      "actualizacion": 1545115804927,
      "direccion": "Adolfo López Mateos S/N",
      "lat": 18.8138,
      "lng": -99.6698,
      "nombre": "ORVI COMBUSTIBLES S.A DE C.V",
      "cre_id": "PL/5839/EXP/ES/2015"
   },
   {
      "marca": "REPSOL",
      "actualizacion": 1545115804932,
      "direccion": "Autopista México-Veracruz Km 258+100",
      "lat": 18.81594,
      "lng": -97.21061,
      "nombre": "SERVICIOS COLORINES, S.A DE C.V.",
      "cre_id": "PL/3794/EXP/ES/2015"
   },
   {
      "marca": "HIDROSINA",
      "actualizacion": 1545115804935,
      "direccion": "Libramiento Cuautla a Izucar de Matamoros Km 5 +050",
      "lat": 18.817839,
      "lng": -98.918962,
      "nombre": "OPERADORA DE ESTACIONES DE SERVICIO 20-20, S.A. DE C.V.",
      "cre_id": "PL/6701/EXP/ES/2015"
   },
   {
      "marca": "PEMEX",
      "actualizacion": 1545115804943,
      "direccion": "Libramiento Cuautla Izucar de Matamoros Km 4.33 Libramiento Oriente",
      "lat": 18.819815,
      "lng": -98.919273,
      "nombre": "OPERADORA DE ESTACIONES DE SERVICIO 20-20, S.A. DE C.V.",
      "cre_id": "PL/6697/EXP/ES/2015"
   },
   {
      "marca": "REPSOL",
      "actualizacion": 1545115804952,
      "direccion": "Avenida Juárez No. 125",
      "lat": 18.827149,
      "lng": -97.160769,
      "nombre": "ENERGETICOS DE CORDOBA  SA  DE CV",
      "cre_id": "PL/3022/EXP/ES/2015"
   },
   {
      "marca": "PEMEX",
      "actualizacion": 1545115804959,
      "direccion": "Avenida Insurgentes No. 726",
      "lat": 18.832611,
      "lng": -98.946626,
      "nombre": "GASOLINERA MILENIUM 3000, S.A. DE C.V.",
      "cre_id": "PL/9636/EXP/ES/2015"
   },
   {
      "marca": "TOTAL",
      "actualizacion": 1545115804974,
      "direccion": "Autopista del Sol México-Acapulco Km 101.150",
      "lat": 18.8348646,
      "lng": -99.2192467,
      "nombre": "SERVICIO EL DIEZ, S.A. DE C.V.",
      "cre_id": "PL/2507/EXP/ES/2015"
   },
   {
      "marca": "BP",
      "actualizacion": 1545115804975,
      "direccion": "Carretera Fed. Cordoba-Veracruz Km 76.6",
      "lat": 18.8348375,
      "lng": -96.3197086,
      "nombre": "SERVICIO MATA ESPINO SA DE CV",
      "cre_id": "PL/4658/EXP/ES/2015"
   },
   {
      "marca": "PEMEX",
      "actualizacion": 1545115804978,
      "direccion": "Sur 11 No. 1688",
      "lat": 18.837579,
      "lng": -97.093727,
      "nombre": "GASOLINERA ROJI S.A. DE C.V.",
      "cre_id": "PL/3317/EXP/ES/2015"
   },
   {
      "marca": "PEMEX",
      "actualizacion": 1545115804981,
      "direccion": "BOULEVARD APATLACO NO. 401",
      "lat": 18.83726,
      "lng": -99.22208,
      "nombre": "SUPER SERVICIO VALLE DE ZAPATA, S.A DE C.V",
      "cre_id": "PL/21132/EXP/ES/2018"
   },
   {
      "marca": "REPSOL",
      "actualizacion": 1545115804981,
      "direccion": "Prolongaciónde Sur 13/Primo de V. Y T. Penafiel No. 1596",
      "lat": 18.83758,
      "lng": -97.09373,
      "nombre": "SERVICIO ESCAMELA, S.A. DE C.V.",
      "cre_id": "PL/3798/EXP/ES/2015"
   },
   {
      "marca": "PEMEX",
      "actualizacion": 1545115804986,
      "direccion": "2 Oriente No. 26",
      "lat": 18.83806,
      "lng": -97.81894,
      "nombre": "FARAJOF LOS ANGELES, S.A. DE C.V.",
      "cre_id": "PL/7451/EXP/ES/2015"
   },
   {
      "marca": "REPSOL",
      "actualizacion": 1545115804992,
      "direccion": "Camino Nacional No. 470",
      "lat": 18.83869,
      "lng": -97.12173,
      "nombre": "GRUPO GASOLINERO DE ORIZABA, S.A. DE C.V.",
      "cre_id": "PL/5161/EXP/ES/2015"
   },
   {
      "marca": "PEMEX",
      "actualizacion": 1545115805012,
      "direccion": "Av. Reforma No. 173 esquina entrega inmediata",
      "lat": 18.84721,
      "lng": -98.93913,
      "nombre": "Estación Amilpas S.A.de C.V.",
      "cre_id": "PL/21061/EXP/ES/2018"
   },
   {
      "marca": "G500",
      "actualizacion": 1545115805013,
      "direccion": "Km 98.5 Carretera México-Cuautla",
      "lat": 18.8496806,
      "lng": -98.9381475,
      "nombre": "NACIONAL DE COMBUSTIBLES Y LUBRICANTES S.A. DE C.V",
      "cre_id": "PL/5989/EXP/ES/2015"
   },
   {
      "marca": "REPSOL",
      "actualizacion": 1545115805017,
      "direccion": "Oriente 6 No. 1743 Esquina Sur 33",
      "lat": 18.84919,
      "lng": -97.08842,
      "nombre": "COMBUSTIBLES REAL, S.A. DE C.V.",
      "cre_id": "PL/3802/EXP/ES/2015"
   },
   {
      "marca": "HIDROSINA",
      "actualizacion": 1545115805020,
      "direccion": "Avenida No Reelección No. 385",
      "lat": 18.850324,
      "lng": -99.178932,
      "nombre": "CORPORACIÓN GASOLINERA MILLENIUM, S.A. DE C.V.",
      "cre_id": "PL/8902/EXP/ES/2015"
   },
   {
      "marca": "PEMEX",
      "actualizacion": 1545115805020,
      "direccion": "Libramiento Cuautla-Izucar de Matamoros Km 0.2 No. 5",
      "lat": 18.850535,
      "lng": -98.935538,
      "nombre": "OPERADORA DE ESTACIONES DE SERVICIO 20-20, S.A. DE C.V.",
      "cre_id": "PL/6699/EXP/ES/2015"
   },
   {
      "marca": "REPSOL",
      "actualizacion": 1545115805023,
      "direccion": "Prolongación Oriente 6 No. 2724",
      "lat": 18.85292,
      "lng": -97.0785,
      "nombre": "Kanz Combustibles, SA de CV",
      "cre_id": "PL/2175/EXP/ES/2015"
   },
   {
      "marca": "BP",
      "actualizacion": 1545115805025,
      "direccion": "Boulevard Amatlán-Cordoba No. 503",
      "lat": 18.8530088,
      "lng": -96.9143019,
      "nombre": "AUTOSERVICIO AMATLAN, S DE RL DE CV",
      "cre_id": "PL/5308/EXP/ES/2015"
   },
   {
      "marca": "REPSOL",
      "actualizacion": 1545115805035,
      "direccion": "Avenida Circunvalación Esquina Oriente 7 No. 2677",
      "lat": 18.85722,
      "lng": -97.0891,
      "nombre": "SERVICIO ESCAMELA, S.A. DE C.V.",
      "cre_id": "PL/3799/EXP/ES/2015"
   },
   {
      "marca": "PEMEX",
      "actualizacion": 1545115805038,
      "direccion": "Km 35.400 Carretera Federal Puebla-Atlixco –Matamoros",
      "lat": 18.857794,
      "lng": -98.44706,
      "nombre": "SERVICIO RUTA DEL SUR SA DE CV",
      "cre_id": "PL/2685/EXP/ES/2015"
   },
   {
      "marca": "REPSOL",
      "actualizacion": 1545115805044,
      "direccion": "Carretera Nacional Cordoba-Veracruz Km 7+887.5",
      "lat": 18.8584,
      "lng": -96.8717,
      "nombre": "SERVICIOS COLORINES, S.A DE C.V.",
      "cre_id": "PL/3792/EXP/ES/2015"
   },
   {
      "marca": "HIDROSINA",
      "actualizacion": 1545115805046,
      "direccion": "Carretera Cuernavaca-Cuautla No. 97",
      "lat": 18.858872,
      "lng": -98.959235,
      "nombre": "OPERADORA DE ESTACIONES DE SERVICIO 20-20, S.A. DE C.V.",
      "cre_id": "PL/6695/EXP/ES/2015"
   },
   {
      "marca": "PEMEX",
      "actualizacion": 1545115805049,
      "direccion": "Km 300+700 Autopista México Tramo Veracruz-Cordoba",
      "lat": 18.860679,
      "lng": -96.879881,
      "nombre": "ANSELMA EDHIT HUESCA LAGUNES",
      "cre_id": "PL/12023/EXP/ES/2015"
   },
   {
      "marca": "PEMEX",
      "actualizacion": 1545115805055,
      "direccion": "Avenida Marcelino García Barragan No. 218",
      "lat": 18.861404,
      "lng": -99.239774,
      "nombre": "ESTACION DE SERVICIO GEOPOLIS S.A. DE C.V.",
      "cre_id": "PL/7982/EXP/ES/2015"
   },
   {
      "marca": "HIDROSINA",
      "actualizacion": 1545115805057,
      "direccion": "Avenida Oriente 31 Entre Norte 4 Y Norte 6 No. 263",
      "lat": 18.861788,
      "lng": -97.108012,
      "nombre": "HIDROSINA PLUS, S.A.P.I. DE C.V.",
      "cre_id": "PL/8278/EXP/ES/2015"
   },
   {
      "marca": "REPSOL",
      "actualizacion": 1545115805065,
      "direccion": "Avenida Oriente 31 No. 240 Y Calle 4 Norte.",
      "lat": 18.86332,
      "lng": -97.10865,
      "nombre": "GRUPO GASOLINERO DE ORIZABA, S.A. DE C.V.",
      "cre_id": "PL/5165/EXP/ES/2015"
   },
   {
      "marca": "PEMEX",
      "actualizacion": 1545115805068,
      "direccion": "Autop Mex-Ver Km 219+105 Cuerpo B Tramo Pue-Espera",
      "lat": 18.86493,
      "lng": -97.37113,
      "nombre": "SINERGIA DE ENERGETICOS S.A. DE C.V.",
      "cre_id": "PL/7279/EXP/ES/2015"
   },
   {
      "marca": "PEMEX",
      "actualizacion": 1545115805089,
      "direccion": "Carretera Sultepec-Toluca S/N. Kilometro 2.5",
      "lat": 18.87,
      "lng": -99.9656,
      "nombre": "SERVICIO MABIAN S.A DE C.V",
      "cre_id": "PL/5722/EXP/ES/2015"
   },
   {
      "marca": "REPSOL",
      "actualizacion": 1545115805089,
      "direccion": "Boulevard Cordoba a Penuela No. 7707",
      "lat": 18.87498,
      "lng": -96.9162,
      "nombre": "SERVICIO DEMUSA S.A. DE C.V.",
      "cre_id": "PL/7191/EXP/ES/2015"
   },
   {
      "marca": "REPSOL",
      "actualizacion": 1545115805101,
      "direccion": "Km 325 México-Veracruz",
      "lat": 18.87478,
      "lng": -97.02684,
      "nombre": "SERVICIO CUAUTLAPAN SA  DE  CV",
      "cre_id": "PL/3449/EXP/ES/2015"
   },
   {
      "marca": "PEMEX",
      "actualizacion": 1545115805112,
      "direccion": "Km 192+300 Tramo Puebla-Cordoba Carretera Cuota Mex.Cor",
      "lat": 18.877089,
      "lng": -97.588052,
      "nombre": "SERVICIOS TURISTICOS ENRIQUEZ SA DE CV",
      "cre_id": "PL/4288/EXP/ES/2015"
   },
   {
      "marca": "BP",
      "actualizacion": 1545115805115,
      "direccion": "Boulevard Carretera Cordoba Potrero No. 29",
      "lat": 18.8731768,
      "lng": -96.8680607,
      "nombre": "AUTOSERVICIO PARAJE, SA DE CV",
      "cre_id": "PL/19621/EXP/ES/2016"
   },
   {
      "marca": "PEMEX",
      "actualizacion": 1545115805117,
      "direccion": "Avenida 9 Oriente No. 1307",
      "lat": 18.878618,
      "lng": -97.723906,
      "nombre": "OPERATIVA LOPEZ S.A. DE C.V.",
      "cre_id": "PL/8945/EXP/ES/2015"
   },
   {
      "marca": "HIDROSINA",
      "actualizacion": 1545115805131,
      "direccion": "Avenida 1 No. 3511",
      "lat": 18.882882,
      "lng": -96.922567,
      "nombre": "HIDROSINA PLUS, S.A.P.I. DE C.V.",
      "cre_id": "PL/10565/EXP/ES/2015"
   },
   {
      "marca": "BP",
      "actualizacion": 1545115805134,
      "direccion": "Calle 9 Esquina Avenida 25 No. 725",
      "lat": 18.8838276,
      "lng": -96.9403563,
      "nombre": "COMERCIALIZADORA DE COMBUSTIBLES TIFA SA DE CV",
      "cre_id": "PL/5605/EXP/ES/2015"
   },
   {
      "marca": "PEMEX",
      "actualizacion": 1545115805136,
      "direccion": "Km 23 Carretera La Huacana-Nueva Italia",
      "lat": 18.884509,
      "lng": -101.985172,
      "nombre": "ENRIQUE QUEZADA SANCHEZ",
      "cre_id": "PL/10827/EXP/ES/2015"
   },
   {
      "marca": "PEMEX",
      "actualizacion": 1545115805139,
      "direccion": "Avenida 11 Calle Veintiuno No 1910",
      "lat": 18.884973,
      "lng": -96.931768,
      "nombre": "JOAQUIN MONTIEL VAZQUEZ",
      "cre_id": "PL/10971/EXP/ES/2015"
   },
   {
      "marca": "PEMEX",
      "actualizacion": 1545115805149,
      "direccion": "Autopista Orizaba - Cordoba Km 290+500 S.N.",
      "lat": 18.887002,
      "lng": -96.964491,
      "nombre": "SERVICIO LOS CAFETOS, S.A. DE C.V.",
      "cre_id": "PL/9991/EXP/ES/2015"
   },
   {
      "marca": "BP",
      "actualizacion": 1545115805165,
      "direccion": "Avenida Libertad Nº 23",
      "lat": 18.8895102,
      "lng": -97.7523503,
      "nombre": "MARIA LUISA PANDUR BERNARDINO",
      "cre_id": "PL/19032/EXP/ES/2016"
   },
   {
      "marca": "BP",
      "actualizacion": 1545115805171,
      "direccion": "Carretera Libre México-Cuautla Km 62.5 Emiliano Zapata No. 1",
      "lat": 18.8898285,
      "lng": -98.9155766,
      "nombre": "ESTACION DE SERVICIO CUAUTLA,S.A. DE CV (ES6730)",
      "cre_id": "PL/2657/EXP/ES/2015"
   },
   {
      "marca": "PEMEX",
      "actualizacion": 1545115805174,
      "direccion": "Avenida Morelos Sur No. 14-A",
      "lat": 18.88993,
      "lng": -99.228588,
      "nombre": "SERVICIO COSSY SA DE CV",
      "cre_id": "PL/2870/EXP/ES/2015"
   },
   {
      "marca": "PEMEX",
      "actualizacion": 1545115805178,
      "direccion": "Boulevard Cuauhnáhuac Km 16.5",
      "lat": 18.890246,
      "lng": -99.127479,
      "nombre": "ESTACION DE SERVICIO LOPEZ PORTILLO S.A DE C.V",
      "cre_id": "PL/2741/EXP/ES/2015"
   },
   {
      "marca": "PEMEX",
      "actualizacion": 1545115805181,
      "direccion": "Boulevard Cuauhnahuac No. 584",
      "lat": 18.890378,
      "lng": -99.143868,
      "nombre": "COMBUSTIBLES JIUTEPEC S.A. DE C.V.",
      "cre_id": "PL/3760/EXP/ES/2015"
   },
   {
      "marca": "RUTA GASOLINERA",
      "actualizacion": 1545115805189,
      "direccion": "Carretera Local a San Mateo Tlaixpan Km 1",
      "lat": 18.892047,
      "lng": -97.744383,
      "nombre": "DIGEPE, S.A. DE C.V. (07356)",
      "cre_id": "PL/1690/EXP/ES/2015"
   },
   {
      "marca": "BP",
      "actualizacion": 1545115805189,
      "direccion": "Avenida 23 No. 1810",
      "lat": 18.893252,
      "lng": -96.9412073,
      "nombre": "FLETERIN S.A. DE C.V.",
      "cre_id": "PL/7042/EXP/ES/2015"
   },
   {
      "marca": "BP",
      "actualizacion": 1545115805192,
      "direccion": "Calle 10 Entre Avenida S 13 Y 15 No. 1305",
      "lat": 18.892102,
      "lng": -96.9518867,
      "nombre": "SUPER GAS DE CORDOBA, S. A. DE C. V.",
      "cre_id": "PL/5833/EXP/ES/2015"
   },
   {
      "marca": "HIDROSINA",
      "actualizacion": 1545115805204,
      "direccion": "Km 10.1 Carretera Fed. Cuernavaca-Cuautla",
      "lat": 18.894956,
      "lng": -99.16626,
      "nombre": "CORPORACIÓN GASOLINERA MILLENIUM, S.A. DE C.V.",
      "cre_id": "PL/8903/EXP/ES/2015"
   },
   {
      "marca": "PEMEX",
      "actualizacion": 1545115805206,
      "direccion": "AV. MORELOS SUR #91",
      "lat": 18.89558,
      "lng": -99.22967,
      "nombre": "COMBUSTIBLES CHIPITLAN S.A. DE C.V.",
      "cre_id": "PL/21168/EXP/ES/2018"
   },
   {
      "marca": "HIDROSINA",
      "actualizacion": 1545115805211,
      "direccion": "Avenida Independencia No. 2114",
      "lat": 18.89834,
      "lng": -98.43322,
      "nombre": "ZOHAN GAS, S. DE R.L. DE C.V.",
      "cre_id": "PL/13595/EXP/ES/2016"
   },
   {
      "marca": "PEMEX",
      "actualizacion": 1545115805213,
      "direccion": "Km 52 Carretera Puebla-Tehucan",
      "lat": 18.895959,
      "lng": -97.769666,
      "nombre": "SERVICIO SANTA TERESITA SA DE CV",
      "cre_id": "PL/7027/EXP/ES/2015"
   },
   {
      "marca": "PEMEX",
      "actualizacion": 1545115805216,
      "direccion": "JOSÉ MARÍA MORELOS 68",
      "lat": 18.89969,
      "lng": -99.23087,
      "nombre": "SUPERSERVICIO CARGAGAS S.A. DE C.V.",
      "cre_id": "PL/21038/EXP/ES/2018"
   },
   {
      "marca": "REPSOL",
      "actualizacion": 1545115805237,
      "direccion": "Avenida 11 No. 3201 Esquina Calle 32",
      "lat": 18.9015,
      "lng": -96.95351,
      "nombre": "Kanz Combustibles Tres, SA de CV",
      "cre_id": "PL/2176/EXP/ES/2015"
   },
   {
      "marca": "PEMEX",
      "actualizacion": 1545115805240,
      "direccion": "Avenida 1 No. 2803 A",
      "lat": 18.9015539082545,
      "lng": -96.9493828628888,
      "nombre": "COMBUSTIBLES FOSILES DEL SURESTE S.A. DE C.V.",
      "cre_id": "PL/3759/EXP/ES/2015"
   },
   {
      "marca": "PEMEX",
      "actualizacion": 1545115805261,
      "direccion": "Calle 10 No. 2625",
      "lat": 18.905411,
      "lng": -96.931654,
      "nombre": "SUPER GAS LAS FUENTES SA DE CV",
      "cre_id": "PL/10218/EXP/ES/2015"
   },
   {
      "marca": "PEMEX",
      "actualizacion": 1545115805268,
      "direccion": "Avenida Los Volcanes No. 3110",
      "lat": 18.9090964324993,
      "lng": -98.451763053546,
      "nombre": "HERMANOS CARRETO SUCESORES S DE R.L",
      "cre_id": "PL/1545/EXP/ES/2015"
   },
   {
      "marca": "BP",
      "actualizacion": 1545115805272,
      "direccion": "Calzada Morelos S/N.",
      "lat": 18.9087471,
      "lng": -96.9611136,
      "nombre": "MAXI SERVICIOS ABA S. DE R.L. DE C.V.",
      "cre_id": "PL/3899/EXP/ES/2015"
   },
   {
      "marca": "PEMEX",
      "actualizacion": 1545115805279,
      "direccion": "Sebastian Lerdo de Tejada No. 80",
      "lat": 18.9105,
      "lng": -99.7656,
      "nombre": "GASOLINERA DIMARO SA DE CV",
      "cre_id": "PL/12650/EXP/ES/2015"
   },
   {
      "marca": "PEMEX",
      "actualizacion": 1545115805282,
      "direccion": "Carretera Tepeaca-Mixtla Km 5+300",
      "lat": 18.91106,
      "lng": -97.89658,
      "nombre": "ISABEL LUIS GARCIA",
      "cre_id": "PL/9424/EXP/ES/2015"
   },
   {
      "marca": "PEMEX",
      "actualizacion": 1545115805288,
      "direccion": "Boulevard Cuauhnahuac Esquinaeje Norte Sur Lt. 8 Mz. 18",
      "lat": 18.911843,
      "lng": -99.181399,
      "nombre": "Gasolinera CIVAC, S.A.",
      "cre_id": "PL/10198/EXP/ES/2015"
   },
   {
      "marca": "PEMEX",
      "actualizacion": 1545115805291,
      "direccion": "Paseo Cuauhnahuac Km 3.5",
      "lat": 18.911843,
      "lng": -99.181399,
      "nombre": "SUPER SERVICIO JIUTEPEC, S.A. DE C.V.",
      "cre_id": "PL/9637/EXP/ES/2015"
   },
   {
      "marca": "PEMEX",
      "actualizacion": 1545115805315,
      "direccion": "Carretera Federal México-Cuautla Km 68",
      "lat": 18.916358070066,
      "lng": -98.8956488736801,
      "nombre": "ESTACION DE SERVICIO EL SALTO SA DE CV",
      "cre_id": "PL/1727/EXP/ES/2015"
   },
   {
      "marca": "PEMEX",
      "actualizacion": 1545115805352,
      "direccion": "Km 0+900 Carretera a Luvianos",
      "lat": 18.92134,
      "lng": -100.29002,
      "nombre": "EJIDO EL PROGRESO DE LUVIANOS",
      "cre_id": "PL/7071/EXP/ES/2015"
   },
   {
      "marca": "PEMEX",
      "actualizacion": 1545115805353,
      "direccion": "Prolongación Sebastian Lerdo de Tejada S/N",
      "lat": 18.928513,
      "lng": -99.768798,
      "nombre": "JOSE ADRIAN MENDEZ VAZQUEZ",
      "cre_id": "PL/8474/EXP/ES/2015"
   },
   {
      "marca": "G500",
      "actualizacion": 1545115805359,
      "direccion": "Avenida Plan de Ayala 830",
      "lat": 18.923967088983,
      "lng": -99.21903633317,
      "nombre": "CONSORCIO PLAN SA DE CV",
      "cre_id": "PL/1445/EXP/ES/2015"
   },
   {
      "marca": "PEMEX",
      "actualizacion": 1545115805360,
      "direccion": "Insurgentes No. 915",
      "lat": 18.927449,
      "lng": -103.884828,
      "nombre": "GASOLINERA TECOMAN, S.A. DE C.V.",
      "cre_id": "PL/9627/EXP/ES/2015"
   },
   {
      "marca": "PEMEX",
      "actualizacion": 1545115805365,
      "direccion": "Carretera Tecali-Tepeaca Km 3.4 S/N",
      "lat": 18.92554,
      "lng": -97.95779,
      "nombre": "ENERGETICOS EL FRESNO S.A. DE C.V.",
      "cre_id": "PL/19568/EXP/ES/2016"
   },
   {
      "marca": "PEMEX",
      "actualizacion": 1545115805388,
      "direccion": "Avenida Leandro Valle No. 1005 Y Avenida Vicente Guerrero",
      "lat": 18.932916,
      "lng": -99.230502,
      "nombre": "Servicio Plaza Cuernavaca, S.A. DE C.V.",
      "cre_id": "PL/10325/EXP/ES/2015"
   },
   {
      "marca": "PEMEX",
      "actualizacion": 1545115805401,
      "direccion": "Avenida Morelos Y Pavón Norte No. 1406",
      "lat": 18.93664,
      "lng": -99.24001,
      "nombre": "GASOLINERA RIVALCAR S.A. DE C.V.",
      "cre_id": "PL/19847/EXP/ES/2017"
   },
   {
      "marca": "BP",
      "actualizacion": 1545115805411,
      "direccion": "Boulevard Atlixco 2808",
      "lat": 18.9360491,
      "lng": -98.4053527,
      "nombre": "SERVICIO SAN AGOSTINO, S. DE R.L. DE C.V.",
      "cre_id": "PL/19758/EXP/ES/2016"
   },
   {
      "marca": "PEMEX",
      "actualizacion": 1545115805419,
      "direccion": "Corredor Urbano Villa Guerrero San Francisco La Finca No. 40",
      "lat": 18.9433,
      "lng": -99.6473,
      "nombre": "JAISERVICIO S.A DE C.V",
      "cre_id": "PL/9629/EXP/ES/2015"
   },
   {
      "marca": "FULLGAS",
      "actualizacion": 1545115805421,
      "direccion": "Carretera Federal Chetumal Carrillo Puerto Km 56.7",
      "lat": 18.946159,
      "lng": -88.184827,
      "nombre": "CARLOS HERNAN FIGUEROA MARTINEZ",
      "cre_id": "PL/9136/EXP/ES/2015"
   },
   {
      "marca": "BP",
      "actualizacion": 1545115805430,
      "direccion": "Carretera Federal Fortin-Conejos Km 6+150",
      "lat": 18.9480956,
      "lng": -97.0189756,
      "nombre": "AUTO SERVICIO ORIENTE SA DE CV",
      "cre_id": "PL/5579/EXP/ES/2015"
   },
   {
      "marca": "PEMEX",
      "actualizacion": 1545115805453,
      "direccion": "Avenida Emiliano Zapata No. 707-A",
      "lat": 18.952494,
      "lng": -99.245655,
      "nombre": "SERVICIO MILENIO 2000, S.A. DE C.V",
      "cre_id": "PL/9638/EXP/ES/2015"
   },
   {
      "marca": "PEMEX",
      "actualizacion": 1545115805455,
      "direccion": "Autopista México-Acapulco Km 85.5",
      "lat": 18.957255,
      "lng": -99.202946,
      "nombre": "SERVICIOS GASOLINEROS SAN CARLOS SA DE CV",
      "cre_id": "PL/10030/EXP/ES/2015"
   },
   {
      "marca": "PEMEX",
      "actualizacion": 1545115805462,
      "direccion": "Avenida Domingo Diez No. 1207",
      "lat": 18.95679,
      "lng": -99.23739,
      "nombre": "Servicio 727, S.A. de C.V.",
      "cre_id": "PL/818/EXP/ES/2015"
   },
   {
      "marca": "G500",
      "actualizacion": 1545115805462,
      "direccion": "Autopista México - Acapulco Km 84 - B",
      "lat": 18.9591661,
      "lng": -99.2116684,
      "nombre": "Servicio Montecarlo, S.A. de C.V.",
      "cre_id": "PL/1114/EXP/ES/2015"
   },
   {
      "marca": "BP",
      "actualizacion": 1545115805470,
      "direccion": "Km 5 Carretera Fed. 140 Empalme-Jalapa",
      "lat": 18.9584553,
      "lng": -97.8319444,
      "nombre": "ENERGETICOS SAN JUAN S.A. DE C.V.",
      "cre_id": "PL/7166/EXP/ES/2015"
   },
   {
      "marca": "BP",
      "actualizacion": 1545115805484,
      "direccion": "Calle Miguel Negrete Oriente No. 201",
      "lat": 18.9605094,
      "lng": -97.9009755,
      "nombre": "ESTACIÓNDESERVICIOSMULTIPLESSANTONIÑODOCTORSADECV",
      "cre_id": "PL/13627/EXP/ES/2016"
   },
   {
      "marca": "TOTAL",
      "actualizacion": 1545115805488,
      "direccion": "Avenida Prolongación Madero Lt. 5",
      "lat": 18.9615262,
      "lng": -99.5771189,
      "nombre": "Servicio El Rebozo, S.A. de C.V.",
      "cre_id": "PL/12683/EXP/ES/2015"
   },
   {
      "marca": "PEMEX",
      "actualizacion": 1545115805492,
      "direccion": "Prolongación Madero No. 819",
      "lat": 18.961704,
      "lng": -99.575998,
      "nombre": "EFRAIN OSORNIO NARVAEZ",
      "cre_id": "PL/19451/EXP/ES/2016"
   },
   {
      "marca": "REPSOL",
      "actualizacion": 1545115805499,
      "direccion": "Boulevard Capitán Carlos Camacho Espíritu No. 161 C",
      "lat": 18.96381,
      "lng": -98.1746,
      "nombre": "PETRO MAR DEL GOLFO SA DE CV",
      "cre_id": "PL/2311/EXP/ES/2015"
   },
   {
      "marca": "SUPERCARGA",
      "actualizacion": 1545115805509,
      "direccion": "Prolongación de La 14 Sur No. 12101",
      "lat": 18.9661229,
      "lng": -98.2187728,
      "nombre": "GASOLINERA PERIFERICO SAN JOSE, SA DE CV",
      "cre_id": "PL/5797/EXP/ES/2015"
   },
   {
      "marca": "G500",
      "actualizacion": 1545115805511,
      "direccion": "Bulevar Valsequillo No. 807",
      "lat": 18.9677865,
      "lng": -98.1811375,
      "nombre": "SERVICIO CUATEMIXTLA S.A DE C.V",
      "cre_id": "PL/7365/EXP/ES/2015"
   },
   {
      "marca": "PEMEX",
      "actualizacion": 1545115805523,
      "direccion": "Paseo de Los Insurgentes Lt.S 12-13-14",
      "lat": 18.9715,
      "lng": -99.5863,
      "nombre": "MARISOL BALADO NOVOA",
      "cre_id": "PL/3692/EXP/ES/2015"
   },
   {
      "marca": "PEMEX",
      "actualizacion": 1545115805525,
      "direccion": "Prolongación 11 Sur No. 14120",
      "lat": 18.971915,
      "lng": -98.262255,
      "nombre": "Gasolineria Ale, S.A. de C.V.",
      "cre_id": "PL/5962/EXP/ES/2015"
   },
   {
      "marca": "PEMEX",
      "actualizacion": 1545115805530,
      "direccion": "Prolongación 14 Sur No. 11517",
      "lat": 18.974133,
      "lng": -98.219048,
      "nombre": "SINERGIA DE ENERGETICOS S.A. DE C.V.",
      "cre_id": "PL/5785/EXP/ES/2015"
   },
   {
      "marca": "PEMEX",
      "actualizacion": 1545115805544,
      "direccion": "141 Poniente No. 1932",
      "lat": 18.97768,
      "lng": -98.26658,
      "nombre": "SERVICIO OLXO 5, S.A. DE C.V.",
      "cre_id": "PL/20338/EXP/ES/2017"
   },
   {
      "marca": "PEMEX",
      "actualizacion": 1545115805549,
      "direccion": "Carretera Fed.Entronque Librto. Via Jalapa",
      "lat": 18.977325,
      "lng": -97.805359,
      "nombre": "Hidrocarburos Modelo, S.A. de C.V.",
      "cre_id": "PL/10994/EXP/ES/2015"
   },